header: 
  seq: 0
  stamp: 
    secs: 1552998142
    nsecs: 155191981
  frame_id: "map"
pose: 
  position: 
    x: 0.0
    y: 0.0
    z: 0.0
  orientation: 
    x: 0.0
    y: 0.0
    z: 0.0
    w: 1.0
---
header: 
  seq: 1
  stamp: 
    secs: 1552998142
    nsecs: 255715949
  frame_id: "map"
pose: 
  position: 
    x: 0.00198745727539
    y: -0.000556945800781
    z: 0.0
  orientation: 
    x: 0.0
    y: 0.0
    z: -0.00058666066161
    w: 0.999999827915
---
header: 
  seq: 2
  stamp: 
    secs: 1552998142
    nsecs: 356103273
  frame_id: "map"
pose: 
  position: 
    x: 0.00232124328613
    y: -0.000181198120117
    z: 0.0
  orientation: 
    x: 0.0
    y: 0.0
    z: -0.000701101555794
    w: 0.999999754228
---
header: 
  seq: 3
  stamp: 
    secs: 1552998142
    nsecs: 456650378
  frame_id: "map"
pose: 
  position: 
    x: 0.00202369689941
    y: -0.000654220581055
    z: 0.0
  orientation: 
    x: 0.0
    y: 0.0
    z: -0.000490339569656
    w: 0.999999879784
---
header: 
  seq: 4
  stamp: 
    secs: 1552998142
    nsecs: 557020677
  frame_id: "map"
pose: 
  position: 
    x: 0.00270843505859
    y: -0.0006103515625
    z: 0.0
  orientation: 
    x: 0.0
    y: 0.0
    z: -0.000512750913273
    w: 0.999999868543
---
header: 
  seq: 5
  stamp: 
    secs: 1552998142
    nsecs: 657456770
  frame_id: "map"
pose: 
  position: 
    x: 0.00235176086426
    y: -0.000486373901367
    z: 0.0
  orientation: 
    x: 0.0
    y: 0.0
    z: -0.000708969366949
    w: 0.999999748681
---
header: 
  seq: 6
  stamp: 
    secs: 1552998142
    nsecs: 758006148
  frame_id: "map"
pose: 
  position: 
    x: 0.00230979919434
    y: 7.62939453125e-06
    z: 0.0
  orientation: 
    x: 0.0
    y: 0.0
    z: -0.000743778470313
    w: 0.999999723397
---
header: 
  seq: 7
  stamp: 
    secs: 1552998142
    nsecs: 858646376
  frame_id: "map"
pose: 
  position: 
    x: 0.00259971618652
    y: -0.000572204589844
    z: 0.0
  orientation: 
    x: 0.0
    y: 0.0
    z: -0.000597866332863
    w: 0.999999821278
---
header: 
  seq: 8
  stamp: 
    secs: 1552998142
    nsecs: 958940989
  frame_id: "map"
pose: 
  position: 
    x: 0.00296592712402
    y: -6.48498535156e-05
    z: 0.0
  orientation: 
    x: 0.0
    y: 0.0
    z: -0.000603588377729
    w: 0.999999817841
---
header: 
  seq: 9
  stamp: 
    secs: 1552998143
    nsecs:  59645815
  frame_id: "map"
pose: 
  position: 
    x: 0.00213623046875
    y: -0.0013542175293
    z: 0.0
  orientation: 
    x: 0.0
    y: 0.0
    z: -0.000407846749629
    w: 0.999999916831
---
header: 
  seq: 10
  stamp: 
    secs: 1552998143
    nsecs: 160125354
  frame_id: "map"
pose: 
  position: 
    x: 0.00314140319824
    y: -0.00100898742676
    z: 0.0
  orientation: 
    x: 0.0
    y: 0.0
    z: -0.000631006509101
    w: 0.999999800915
---
header: 
  seq: 11
  stamp: 
    secs: 1552998143
    nsecs: 260632318
  frame_id: "map"
pose: 
  position: 
    x: 0.00262260437012
    y: -0.000473022460938
    z: 0.0
  orientation: 
    x: 0.0
    y: 0.0
    z: -0.000813873511296
    w: 0.999999668805
---
header: 
  seq: 12
  stamp: 
    secs: 1552998143
    nsecs: 361112144
  frame_id: "map"
pose: 
  position: 
    x: 0.0023078918457
    y: -0.000368118286133
    z: 0.0
  orientation: 
    x: 0.0
    y: 0.0
    z: -0.000897319983414
    w: 0.999999597408
---
header: 
  seq: 13
  stamp: 
    secs: 1552998143
    nsecs: 461697671
  frame_id: "map"
pose: 
  position: 
    x: 0.00153350830078
    y: -0.000568389892578
    z: 0.0
  orientation: 
    x: 0.0
    y: 0.0
    z: -0.000481041246168
    w: 0.9999998843
---
header: 
  seq: 14
  stamp: 
    secs: 1552998143
    nsecs: 562191258
  frame_id: "map"
pose: 
  position: 
    x: 0.00192642211914
    y: -0.000663757324219
    z: 0.0
  orientation: 
    x: 0.0
    y: 0.0
    z: -0.000476511293684
    w: 0.999999886468
---
header: 
  seq: 15
  stamp: 
    secs: 1552998143
    nsecs: 662818834
  frame_id: "map"
pose: 
  position: 
    x: 0.00313568115234
    y: -0.000154495239258
    z: 0.0
  orientation: 
    x: 0.0
    y: 0.0
    z: -0.000870855531477
    w: 0.999999620805
---
header: 
  seq: 16
  stamp: 
    secs: 1552998143
    nsecs: 763393160
  frame_id: "map"
pose: 
  position: 
    x: 0.00189018249512
    y: -4.19616699219e-05
    z: 0.0
  orientation: 
    x: 0.0
    y: 0.0
    z: -0.000709684622506
    w: 0.999999748174
---
header: 
  seq: 17
  stamp: 
    secs: 1552998143
    nsecs: 863686932
  frame_id: "map"
pose: 
  position: 
    x: 0.00332450866699
    y: -0.000146865844727
    z: 0.0
  orientation: 
    x: 0.0
    y: 0.0
    z: -0.000501783660045
    w: 0.999999874107
---
header: 
  seq: 18
  stamp: 
    secs: 1552998143
    nsecs: 964131643
  frame_id: "map"
pose: 
  position: 
    x: 0.00215148925781
    y: -8.58306884766e-05
    z: 0.0
  orientation: 
    x: 0.0
    y: 0.0
    z: -0.000374229732548
    w: 0.999999929976
---
header: 
  seq: 19
  stamp: 
    secs: 1552998144
    nsecs:  64824056
  frame_id: "map"
pose: 
  position: 
    x: 0.00251197814941
    y: 0.000106811523438
    z: 0.0
  orientation: 
    x: 0.0
    y: 0.0
    z: -0.00060120419237
    w: 0.999999819277
---
header: 
  seq: 20
  stamp: 
    secs: 1552998144
    nsecs: 165360336
  frame_id: "map"
pose: 
  position: 
    x: 0.00131797790527
    y: -0.000104904174805
    z: 0.0
  orientation: 
    x: 0.0
    y: 0.0
    z: -0.000689657466764
    w: 0.999999762186
---
header: 
  seq: 21
  stamp: 
    secs: 1552998144
    nsecs: 265956105
  frame_id: "map"
pose: 
  position: 
    x: 0.00138664245605
    y: -0.000495910644531
    z: 0.0
  orientation: 
    x: 0.0
    y: 0.0
    z: -0.000593097962126
    w: 0.999999824117
---
header: 
  seq: 22
  stamp: 
    secs: 1552998144
    nsecs: 366334460
  frame_id: "map"
pose: 
  position: 
    x: 0.0028133392334
    y: -0.000232696533203
    z: 0.0
  orientation: 
    x: 0.0
    y: 0.0
    z: -0.000555666251384
    w: 0.999999845617
---
header: 
  seq: 23
  stamp: 
    secs: 1552998144
    nsecs: 466745007
  frame_id: "map"
pose: 
  position: 
    x: 0.00223159790039
    y: -8.20159912109e-05
    z: 0.0
  orientation: 
    x: 0.0
    y: 0.0
    z: -0.000974805987655
    w: 0.999999524877
---
header: 
  seq: 24
  stamp: 
    secs: 1552998144
    nsecs: 567170627
  frame_id: "map"
pose: 
  position: 
    x: 0.00216102600098
    y: -0.000316619873047
    z: 0.0
  orientation: 
    x: 0.0
    y: 0.0
    z: -0.000654848362083
    w: 0.999999785587
---
header: 
  seq: 25
  stamp: 
    secs: 1552998144
    nsecs: 667788254
  frame_id: "map"
pose: 
  position: 
    x: 0.00272941589355
    y: -0.0010929107666
    z: 0.0
  orientation: 
    x: 0.0
    y: 0.0
    z: -0.000595005310422
    w: 0.999999822984
---
header: 
  seq: 26
  stamp: 
    secs: 1552998144
    nsecs: 768270420
  frame_id: "map"
pose: 
  position: 
    x: 0.00203323364258
    y: 0.000503540039062
    z: 0.0
  orientation: 
    x: 0.0
    y: 0.0
    z: -0.000765236136324
    w: 0.999999707207
---
header: 
  seq: 27
  stamp: 
    secs: 1552998144
    nsecs: 868869261
  frame_id: "map"
pose: 
  position: 
    x: 0.00234794616699
    y: -0.000574111938477
    z: 0.0
  orientation: 
    x: 0.0
    y: 0.0
    z: -0.000492723755159
    w: 0.999999878612
---
header: 
  seq: 28
  stamp: 
    secs: 1552998144
    nsecs: 969306706
  frame_id: "map"
pose: 
  position: 
    x: 0.00222015380859
    y: -0.000511169433594
    z: 0.0
  orientation: 
    x: 0.0
    y: 0.0
    z: -0.00062838390525
    w: 0.999999802567
---
header: 
  seq: 29
  stamp: 
    secs: 1552998145
    nsecs:  69980959
  frame_id: "map"
pose: 
  position: 
    x: 0.00353240966797
    y: -0.000455856323242
    z: 0.0
  orientation: 
    x: 0.0
    y: 0.0
    z: -0.000667246125487
    w: 0.999999777391
---
header: 
  seq: 30
  stamp: 
    secs: 1552998145
    nsecs: 170372290
  frame_id: "map"
pose: 
  position: 
    x: 0.00189971923828
    y: -0.000495910644531
    z: 0.0
  orientation: 
    x: 0.0
    y: 0.0
    z: -0.000656517291778
    w: 0.999999784492
---
header: 
  seq: 31
  stamp: 
    secs: 1552998145
    nsecs: 271021646
  frame_id: "map"
pose: 
  position: 
    x: 0.00266647338867
    y: -0.000665664672852
    z: 0.0
  orientation: 
    x: 0.0
    y: 0.0
    z: -0.000949772048441
    w: 0.999999548966
---
header: 
  seq: 32
  stamp: 
    secs: 1552998145
    nsecs: 371271309
  frame_id: "map"
pose: 
  position: 
    x: 0.00380897521973
    y: -0.00159454345703
    z: 0.0
  orientation: 
    x: 0.0
    y: 0.0
    z: -0.00203362176653
    w: 0.999997932189
---
header: 
  seq: 33
  stamp: 
    secs: 1552998145
    nsecs: 471745364
  frame_id: "map"
pose: 
  position: 
    x: 0.00427436828613
    y: 0.000200271606445
    z: 0.0
  orientation: 
    x: 0.0
    y: 0.0
    z: -0.00203219125801
    w: 0.999997935097
---
header: 
  seq: 34
  stamp: 
    secs: 1552998145
    nsecs: 572457473
  frame_id: "map"
pose: 
  position: 
    x: 0.00442886352539
    y: -0.00133323669434
    z: 0.0
  orientation: 
    x: 0.0
    y: 0.0
    z: -0.00168314694583
    w: 0.999998583507
---
header: 
  seq: 35
  stamp: 
    secs: 1552998145
    nsecs: 672906983
  frame_id: "map"
pose: 
  position: 
    x: 0.00283622741699
    y: -0.00122261047363
    z: 0.0
  orientation: 
    x: 0.0
    y: 0.0
    z: -0.00162735707475
    w: 0.999998675854
---
header: 
  seq: 36
  stamp: 
    secs: 1552998145
    nsecs: 773450767
  frame_id: "map"
pose: 
  position: 
    x: 0.000520706176758
    y: -0.000604629516602
    z: 0.0
  orientation: 
    x: 0.0
    y: 0.0
    z: -0.00148335242728
    w: 0.999998899832
---
header: 
  seq: 37
  stamp: 
    secs: 1552998145
    nsecs: 873995800
  frame_id: "map"
pose: 
  position: 
    x: 0.0079402923584
    y: -0.000381469726562
    z: 0.0
  orientation: 
    x: 0.0
    y: 0.0
    z: 0.00363260686546
    w: 0.999993402062
---
header: 
  seq: 38
  stamp: 
    secs: 1552998145
    nsecs: 974652947
  frame_id: "map"
pose: 
  position: 
    x: 0.0364761352539
    y: 0.000350952148438
    z: 0.0
  orientation: 
    x: 0.0
    y: 0.0
    z: 0.00158908605286
    w: 0.999998737402
---
header: 
  seq: 39
  stamp: 
    secs: 1552998146
    nsecs:  74936529
  frame_id: "map"
pose: 
  position: 
    x: 0.0660457611084
    y: 0.0012378692627
    z: 0.0
  orientation: 
    x: 0.0
    y: 0.0
    z: 0.000438837262221
    w: 0.999999903711
---
header: 
  seq: 40
  stamp: 
    secs: 1552998146
    nsecs: 175358515
  frame_id: "map"
pose: 
  position: 
    x: 0.105239868164
    y: 0.000595092773438
    z: 0.0
  orientation: 
    x: 0.0
    y: 0.0
    z: -0.000479133897755
    w: 0.999999885215
---
header: 
  seq: 41
  stamp: 
    secs: 1552998146
    nsecs: 275938682
  frame_id: "map"
pose: 
  position: 
    x: 0.146554946899
    y: 0.00176048278809
    z: 0.0
  orientation: 
    x: 0.0
    y: 0.0
    z: -0.00160470733932
    w: 0.999998712456
---
header: 
  seq: 42
  stamp: 
    secs: 1552998146
    nsecs: 376455487
  frame_id: "map"
pose: 
  position: 
    x: 0.193059921265
    y: 0.00171661376953
    z: 0.0
  orientation: 
    x: 0.0
    y: 0.0
    z: -0.0021404330573
    w: 0.999997709271
---
header: 
  seq: 43
  stamp: 
    secs: 1552998146
    nsecs: 477266988
  frame_id: "map"
pose: 
  position: 
    x: 0.23969078064
    y: 0.00185394287109
    z: 0.0
  orientation: 
    x: 0.0
    y: 0.0
    z: -0.00301328054973
    w: 0.99999546006
---
header: 
  seq: 44
  stamp: 
    secs: 1552998146
    nsecs: 577695631
  frame_id: "map"
pose: 
  position: 
    x: 0.288942337036
    y: 0.00163650512695
    z: 0.0
  orientation: 
    x: 0.0
    y: 0.0
    z: -0.00344839218222
    w: 0.999994054278
---
header: 
  seq: 45
  stamp: 
    secs: 1552998146
    nsecs: 678152914
  frame_id: "map"
pose: 
  position: 
    x: 0.337072372437
    y: 0.00201225280762
    z: 0.0
  orientation: 
    x: 0.0
    y: 0.0
    z: -0.00426473107077
    w: 0.999990905993
---
header: 
  seq: 46
  stamp: 
    secs: 1552998146
    nsecs: 778709976
  frame_id: "map"
pose: 
  position: 
    x: 0.385105133057
    y: -0.00217628479004
    z: 0.0
  orientation: 
    x: 0.0
    y: 0.0
    z: -0.0071540777321
    w: 0.999974409258
---
header: 
  seq: 47
  stamp: 
    secs: 1552998146
    nsecs: 879075352
  frame_id: "map"
pose: 
  position: 
    x: 0.432565689087
    y: -0.00305366516113
    z: 0.0
  orientation: 
    x: 0.0
    y: 0.0
    z: -0.0102243150762
    w: 0.999947730325
---
header: 
  seq: 48
  stamp: 
    secs: 1552998146
    nsecs: 979499532
  frame_id: "map"
pose: 
  position: 
    x: 0.47748374939
    y: -0.00613212585449
    z: 0.0
  orientation: 
    x: 0.0
    y: 0.0
    z: -0.0113510156565
    w: 0.999935575147
---
header: 
  seq: 49
  stamp: 
    secs: 1552998147
    nsecs:  79866647
  frame_id: "map"
pose: 
  position: 
    x: 0.523138046265
    y: -0.00653648376465
    z: 0.0
  orientation: 
    x: 0.0
    y: 0.0
    z: -0.0125129850205
    w: 0.999921709538
---
header: 
  seq: 50
  stamp: 
    secs: 1552998147
    nsecs: 180369317
  frame_id: "map"
pose: 
  position: 
    x: 0.570985794067
    y: -0.00315475463867
    z: 0.0
  orientation: 
    x: 0.0
    y: 0.0
    z: -0.013497093643
    w: 0.999908910083
---
header: 
  seq: 51
  stamp: 
    secs: 1552998147
    nsecs: 280817201
  frame_id: "map"
pose: 
  position: 
    x: 0.61664390564
    y: -0.00324249267578
    z: 0.0
  orientation: 
    x: 0.0
    y: 0.0
    z: -0.0139471855351
    w: 0.999902733277
---
header: 
  seq: 52
  stamp: 
    secs: 1552998147
    nsecs: 381244926
  frame_id: "map"
pose: 
  position: 
    x: 0.660663604736
    y: -0.00343132019043
    z: 0.0
  orientation: 
    x: 0.0
    y: 0.0
    z: -0.0146242251906
    w: 0.999893060301
---
header: 
  seq: 53
  stamp: 
    secs: 1552998147
    nsecs: 481800557
  frame_id: "map"
pose: 
  position: 
    x: 0.707109451294
    y: -0.00460815429688
    z: 0.0
  orientation: 
    x: 0.0
    y: 0.0
    z: -0.0159196405663
    w: 0.999873274492
---
header: 
  seq: 54
  stamp: 
    secs: 1552998147
    nsecs: 582345533
  frame_id: "map"
pose: 
  position: 
    x: 0.752313613892
    y: -0.00504493713379
    z: 0.0
  orientation: 
    x: 0.0
    y: 0.0
    z: -0.0187690281955
    w: 0.999823846275
---
header: 
  seq: 55
  stamp: 
    secs: 1552998147
    nsecs: 683138995
  frame_id: "map"
pose: 
  position: 
    x: 0.800996780396
    y: -0.00522422790527
    z: 0.0
  orientation: 
    x: 0.0
    y: 0.0
    z: -0.0218878509985
    w: 0.999760432293
---
header: 
  seq: 56
  stamp: 
    secs: 1552998147
    nsecs: 783220981
  frame_id: "map"
pose: 
  position: 
    x: 0.847972869873
    y: -0.00554275512695
    z: 0.0
  orientation: 
    x: 0.0
    y: 0.0
    z: -0.0239794233979
    w: 0.999712452285
---
header: 
  seq: 57
  stamp: 
    secs: 1552998147
    nsecs: 883859719
  frame_id: "map"
pose: 
  position: 
    x: 0.893169403076
    y: -0.00954437255859
    z: 0.0
  orientation: 
    x: 0.0
    y: 0.0
    z: -0.0250393522709
    w: 0.999686466267
---
header: 
  seq: 58
  stamp: 
    secs: 1552998147
    nsecs: 984222081
  frame_id: "map"
pose: 
  position: 
    x: 0.939315795898
    y: -0.0105457305908
    z: 0.0
  orientation: 
    x: 0.0
    y: 0.0
    z: -0.0251435083872
    w: 0.999683852018
---
header: 
  seq: 59
  stamp: 
    secs: 1552998148
    nsecs:  84782054
  frame_id: "map"
pose: 
  position: 
    x: 0.987432479858
    y: -0.014181137085
    z: 0.0
  orientation: 
    x: 0.0
    y: 0.0
    z: -0.0257748744768
    w: 0.999667772735
---
header: 
  seq: 60
  stamp: 
    secs: 1552998148
    nsecs: 185337867
  frame_id: "map"
pose: 
  position: 
    x: 1.03400421143
    y: -0.0124607086182
    z: 0.0
  orientation: 
    x: 0.0
    y: 0.0
    z: -0.0269901475782
    w: 0.999635699609
---
header: 
  seq: 61
  stamp: 
    secs: 1552998148
    nsecs: 286015827
  frame_id: "map"
pose: 
  position: 
    x: 1.07930183411
    y: -0.0159606933594
    z: 0.0
  orientation: 
    x: 0.0
    y: 0.0
    z: -0.0274818226384
    w: 0.999622303385
---
header: 
  seq: 62
  stamp: 
    secs: 1552998148
    nsecs: 386278960
  frame_id: "map"
pose: 
  position: 
    x: 1.12738800049
    y: -0.0166969299316
    z: 0.0
  orientation: 
    x: 0.0
    y: 0.0
    z: -0.0293881614113
    w: 0.999568074705
---
header: 
  seq: 63
  stamp: 
    secs: 1552998148
    nsecs: 486795444
  frame_id: "map"
pose: 
  position: 
    x: 1.17569351196
    y: -0.019193649292
    z: 0.0
  orientation: 
    x: 0.0
    y: 0.0
    z: -0.0325502206345
    w: 0.999470101172
---
header: 
  seq: 64
  stamp: 
    secs: 1552998148
    nsecs: 587327352
  frame_id: "map"
pose: 
  position: 
    x: 1.22147750854
    y: -0.0225963592529
    z: 0.0
  orientation: 
    x: 0.0
    y: 0.0
    z: -0.0342825554659
    w: 0.999412180429
---
header: 
  seq: 65
  stamp: 
    secs: 1552998148
    nsecs: 687967359
  frame_id: "map"
pose: 
  position: 
    x: 1.27090644836
    y: -0.023099899292
    z: 0.0
  orientation: 
    x: 0.0
    y: 0.0
    z: -0.0338498386336
    w: 0.999426930008
---
header: 
  seq: 66
  stamp: 
    secs: 1552998148
    nsecs: 788575013
  frame_id: "map"
pose: 
  position: 
    x: 1.31841087341
    y: -0.0251712799072
    z: 0.0
  orientation: 
    x: 0.0
    y: 0.0
    z: -0.0327930394654
    w: 0.999462163647
---
header: 
  seq: 67
  stamp: 
    secs: 1552998148
    nsecs: 889038344
  frame_id: "map"
pose: 
  position: 
    x: 1.36755180359
    y: -0.027868270874
    z: 0.0
  orientation: 
    x: 0.0
    y: 0.0
    z: -0.0338202916572
    w: 0.999427930304
---
header: 
  seq: 68
  stamp: 
    secs: 1552998148
    nsecs: 989556665
  frame_id: "map"
pose: 
  position: 
    x: 1.41605186462
    y: -0.0297775268555
    z: 0.0
  orientation: 
    x: 0.0
    y: 0.0
    z: -0.0341891501709
    w: 0.999415380115
---
header: 
  seq: 69
  stamp: 
    secs: 1552998149
    nsecs:  90904081
  frame_id: "map"
pose: 
  position: 
    x: 1.46297073364
    y: -0.0325698852539
    z: 0.0
  orientation: 
    x: 0.0
    y: 0.0
    z: -0.03520968196
    w: 0.999379946915
---
header: 
  seq: 70
  stamp: 
    secs: 1552998149
    nsecs: 190526463
  frame_id: "map"
pose: 
  position: 
    x: 1.50990486145
    y: -0.0345935821533
    z: 0.0
  orientation: 
    x: 0.0
    y: 0.0
    z: -0.0371186417851
    w: 0.999310865763
---
header: 
  seq: 71
  stamp: 
    secs: 1552998149
    nsecs: 291113348
  frame_id: "map"
pose: 
  position: 
    x: 1.56002998352
    y: -0.0395317077637
    z: 0.0
  orientation: 
    x: 0.0
    y: 0.0
    z: -0.0429506793501
    w: 0.999077193786
---
header: 
  seq: 72
  stamp: 
    secs: 1552998149
    nsecs: 391418883
  frame_id: "map"
pose: 
  position: 
    x: 1.60788345337
    y: -0.0457038879395
    z: 0.0
  orientation: 
    x: 0.0
    y: 0.0
    z: -0.0510629314858
    w: 0.998695437572
---
header: 
  seq: 73
  stamp: 
    secs: 1552998149
    nsecs: 492029641
  frame_id: "map"
pose: 
  position: 
    x: 1.65351867676
    y: -0.0476970672607
    z: 0.0
  orientation: 
    x: 0.0
    y: 0.0
    z: -0.0597603815192
    w: 0.998212751271
---
header: 
  seq: 74
  stamp: 
    secs: 1552998149
    nsecs: 592512011
  frame_id: "map"
pose: 
  position: 
    x: 1.69948768616
    y: -0.0523529052734
    z: 0.0
  orientation: 
    x: 0.0
    y: 0.0
    z: -0.0614176779173
    w: 0.998112152435
---
header: 
  seq: 75
  stamp: 
    secs: 1552998149
    nsecs: 693528411
  frame_id: "map"
pose: 
  position: 
    x: 1.73890113831
    y: -0.0570278167725
    z: 0.0
  orientation: 
    x: 0.0
    y: 0.0
    z: -0.0543297260843
    w: 0.998523049741
---
header: 
  seq: 76
  stamp: 
    secs: 1552998149
    nsecs: 794831089
  frame_id: "map"
pose: 
  position: 
    x: 1.77594947815
    y: -0.0578842163086
    z: 0.0
  orientation: 
    x: 0.0
    y: 0.0
    z: -0.0188538901905
    w: 0.999822249615
---
header: 
  seq: 77
  stamp: 
    secs: 1552998149
    nsecs: 894918986
  frame_id: "map"
pose: 
  position: 
    x: 1.83375740051
    y: -0.0584907531738
    z: 0.0
  orientation: 
    x: 0.0
    y: 0.0
    z: 0.0308123442232
    w: 0.999525186998
---
header: 
  seq: 78
  stamp: 
    secs: 1552998149
    nsecs: 994975919
  frame_id: "map"
pose: 
  position: 
    x: 1.8784122467
    y: -0.052755355835
    z: 0.0
  orientation: 
    x: 0.0
    y: 0.0
    z: 0.0308136679351
    w: 0.999525146191
---
header: 
  seq: 79
  stamp: 
    secs: 1552998150
    nsecs:  95468476
  frame_id: "map"
pose: 
  position: 
    x: 1.91397666931
    y: -0.0483016967773
    z: 0.0
  orientation: 
    x: 0.0
    y: 0.0
    z: 0.0388542784967
    w: 0.999244887424
---
header: 
  seq: 80
  stamp: 
    secs: 1552998150
    nsecs: 195907432
  frame_id: "map"
pose: 
  position: 
    x: 1.96532249451
    y: -0.0426139831543
    z: 0.0
  orientation: 
    x: 0.0
    y: 0.0
    z: 0.058150095786
    w: 0.998307851497
---
header: 
  seq: 81
  stamp: 
    secs: 1552998150
    nsecs: 296152367
  frame_id: "map"
pose: 
  position: 
    x: 2.00643539429
    y: -0.0383796691895
    z: 0.0
  orientation: 
    x: 0.0
    y: 0.0
    z: 0.0549239005229
    w: 0.998490543346
---
header: 
  seq: 82
  stamp: 
    secs: 1552998150
    nsecs: 396628059
  frame_id: "map"
pose: 
  position: 
    x: 2.05228042603
    y: -0.0334072113037
    z: 0.0
  orientation: 
    x: 0.0
    y: 0.0
    z: 0.0536605351908
    w: 0.99855923558
---
header: 
  seq: 83
  stamp: 
    secs: 1552998150
    nsecs: 497255403
  frame_id: "map"
pose: 
  position: 
    x: 2.09473609924
    y: -0.0280838012695
    z: 0.0
  orientation: 
    x: 0.0
    y: 0.0
    z: 0.0538271981542
    w: 0.998550265504
---
header: 
  seq: 84
  stamp: 
    secs: 1552998150
    nsecs: 597704887
  frame_id: "map"
pose: 
  position: 
    x: 2.13929367065
    y: -0.0205078125
    z: 0.0
  orientation: 
    x: 0.0
    y: 0.0
    z: 0.0578677517239
    w: 0.998324257599
---
header: 
  seq: 85
  stamp: 
    secs: 1552998150
    nsecs: 698252069
  frame_id: "map"
pose: 
  position: 
    x: 2.18808364868
    y: -0.0135974884033
    z: 0.0
  orientation: 
    x: 0.0
    y: 0.0
    z: 0.0632690589267
    w: 0.997996506097
---
header: 
  seq: 86
  stamp: 
    secs: 1552998150
    nsecs: 798637904
  frame_id: "map"
pose: 
  position: 
    x: 2.23643493652
    y: -0.0039176940918
    z: 0.0
  orientation: 
    x: 0.0
    y: 0.0
    z: 0.0659614762365
    w: 0.997822170355
---
header: 
  seq: 87
  stamp: 
    secs: 1552998150
    nsecs: 899221279
  frame_id: "map"
pose: 
  position: 
    x: 2.28575515747
    y: 0.0031623840332
    z: 0.0
  orientation: 
    x: 0.0
    y: 0.0
    z: 0.0638668740732
    w: 0.997958427188
---
header: 
  seq: 88
  stamp: 
    secs: 1552998150
    nsecs: 999660664
  frame_id: "map"
pose: 
  position: 
    x: 2.33537101746
    y: 0.00839996337891
    z: 0.0
  orientation: 
    x: 0.0
    y: 0.0
    z: 0.0617716112633
    w: 0.998090310564
---
header: 
  seq: 89
  stamp: 
    secs: 1552998151
    nsecs: 100594113
  frame_id: "map"
pose: 
  position: 
    x: 2.37850379944
    y: 0.0158004760742
    z: 0.0
  orientation: 
    x: 0.0
    y: 0.0
    z: 0.0697353130569
    w: 0.997565529734
---
header: 
  seq: 90
  stamp: 
    secs: 1552998151
    nsecs: 201307429
  frame_id: "map"
pose: 
  position: 
    x: 2.42890357971
    y: 0.0286426544189
    z: 0.0
  orientation: 
    x: 0.0
    y: 0.0
    z: 0.0936460373869
    w: 0.995605554264
---
header: 
  seq: 91
  stamp: 
    secs: 1552998151
    nsecs: 301581248
  frame_id: "map"
pose: 
  position: 
    x: 2.47376251221
    y: 0.0362377166748
    z: 0.0
  orientation: 
    x: 0.0
    y: 0.0
    z: 0.0909876278873
    w: 0.995852022929
---
header: 
  seq: 92
  stamp: 
    secs: 1552998151
    nsecs: 401889852
  frame_id: "map"
pose: 
  position: 
    x: 2.51500701904
    y: 0.0468235015869
    z: 0.0
  orientation: 
    x: 0.0
    y: 0.0
    z: 0.0893059481776
    w: 0.996004240764
---
header: 
  seq: 93
  stamp: 
    secs: 1552998151
    nsecs: 502168984
  frame_id: "map"
pose: 
  position: 
    x: 2.56322288513
    y: 0.0542106628418
    z: 0.0
  orientation: 
    x: 0.0
    y: 0.0
    z: 0.0905151920717
    w: 0.995895074797
---
header: 
  seq: 94
  stamp: 
    secs: 1552998151
    nsecs: 602669720
  frame_id: "map"
pose: 
  position: 
    x: 2.60987091064
    y: 0.0617218017578
    z: 0.0
  orientation: 
    x: 0.0
    y: 0.0
    z: 0.0902564611614
    w: 0.995918556519
---
header: 
  seq: 95
  stamp: 
    secs: 1552998151
    nsecs: 703095190
  frame_id: "map"
pose: 
  position: 
    x: 2.65718078613
    y: 0.0711116790771
    z: 0.0
  orientation: 
    x: 0.0
    y: 0.0
    z: 0.0880194543926
    w: 0.996118755796
---
header: 
  seq: 96
  stamp: 
    secs: 1552998151
    nsecs: 803664151
  frame_id: "map"
pose: 
  position: 
    x: 2.70303153992
    y: 0.0829639434814
    z: 0.0
  orientation: 
    x: 0.0
    y: 0.0
    z: 0.0849876880622
    w: 0.996382001482
---
header: 
  seq: 97
  stamp: 
    secs: 1552998151
    nsecs: 904295098
  frame_id: "map"
pose: 
  position: 
    x: 2.74979972839
    y: 0.0913181304932
    z: 0.0
  orientation: 
    x: 0.0
    y: 0.0
    z: 0.0830833817895
    w: 0.996542599024
---
header: 
  seq: 98
  stamp: 
    secs: 1552998152
    nsecs:   4759943
  frame_id: "map"
pose: 
  position: 
    x: 2.79508972168
    y: 0.0988254547119
    z: 0.0
  orientation: 
    x: 0.0
    y: 0.0
    z: 0.0811159109118
    w: 0.996704674915
---
header: 
  seq: 99
  stamp: 
    secs: 1552998152
    nsecs: 105249123
  frame_id: "map"
pose: 
  position: 
    x: 2.83996582031
    y: 0.105810165405
    z: 0.0
  orientation: 
    x: 0.0
    y: 0.0
    z: 0.0808142247924
    w: 0.996729181408
---
header: 
  seq: 100
  stamp: 
    secs: 1552998152
    nsecs: 205943491
  frame_id: "map"
pose: 
  position: 
    x: 2.88489723206
    y: 0.116401672363
    z: 0.0
  orientation: 
    x: 0.0
    y: 0.0
    z: 0.084325645374
    w: 0.996438249734
---
header: 
  seq: 101
  stamp: 
    secs: 1552998152
    nsecs: 306453919
  frame_id: "map"
pose: 
  position: 
    x: 2.93167304993
    y: 0.123878479004
    z: 0.0
  orientation: 
    x: 0.0
    y: 0.0
    z: 0.0930374307113
    w: 0.995662611775
---
header: 
  seq: 102
  stamp: 
    secs: 1552998152
    nsecs: 406914554
  frame_id: "map"
pose: 
  position: 
    x: 2.98056793213
    y: 0.135160446167
    z: 0.0
  orientation: 
    x: 0.0
    y: 0.0
    z: 0.0994413326726
    w: 0.99504342687
---
header: 
  seq: 103
  stamp: 
    secs: 1552998152
    nsecs: 507359061
  frame_id: "map"
pose: 
  position: 
    x: 3.02490234375
    y: 0.147117614746
    z: 0.0
  orientation: 
    x: 0.0
    y: 0.0
    z: 0.106592266806
    w: 0.994302815372
---
header: 
  seq: 104
  stamp: 
    secs: 1552998152
    nsecs: 607814097
  frame_id: "map"
pose: 
  position: 
    x: 3.07005310059
    y: 0.159343719482
    z: 0.0
  orientation: 
    x: 0.0
    y: 0.0
    z: 0.111940563001
    w: 0.993714903961
---
header: 
  seq: 105
  stamp: 
    secs: 1552998152
    nsecs: 708337613
  frame_id: "map"
pose: 
  position: 
    x: 3.11298179626
    y: 0.170446395874
    z: 0.0
  orientation: 
    x: 0.0
    y: 0.0
    z: 0.120042644204
    w: 0.992768736198
---
header: 
  seq: 106
  stamp: 
    secs: 1552998152
    nsecs: 808918187
  frame_id: "map"
pose: 
  position: 
    x: 3.15819740295
    y: 0.181945800781
    z: 0.0
  orientation: 
    x: 0.0
    y: 0.0
    z: 0.130895499212
    w: 0.991396171208
---
header: 
  seq: 107
  stamp: 
    secs: 1552998152
    nsecs: 909605835
  frame_id: "map"
pose: 
  position: 
    x: 3.19721603394
    y: 0.19614982605
    z: 0.0
  orientation: 
    x: 0.0
    y: 0.0
    z: 0.145101873906
    w: 0.989416720189
---
header: 
  seq: 108
  stamp: 
    secs: 1552998153
    nsecs:  10212950
  frame_id: "map"
pose: 
  position: 
    x: 3.23512840271
    y: 0.212984085083
    z: 0.0
  orientation: 
    x: 0.0
    y: 0.0
    z: 0.160526372424
    w: 0.987031551551
---
header: 
  seq: 109
  stamp: 
    secs: 1552998153
    nsecs: 110860377
  frame_id: "map"
pose: 
  position: 
    x: 3.27550697327
    y: 0.228626251221
    z: 0.0
  orientation: 
    x: 0.0
    y: 0.0
    z: 0.177772128236
    w: 0.984071679515
---
header: 
  seq: 110
  stamp: 
    secs: 1552998153
    nsecs: 211322392
  frame_id: "map"
pose: 
  position: 
    x: 3.3169708252
    y: 0.246152877808
    z: 0.0
  orientation: 
    x: 0.0
    y: 0.0
    z: 0.194879109192
    w: 0.980827269605
---
header: 
  seq: 111
  stamp: 
    secs: 1552998153
    nsecs: 311905306
  frame_id: "map"
pose: 
  position: 
    x: 3.35570716858
    y: 0.263561248779
    z: 0.0
  orientation: 
    x: 0.0
    y: 0.0
    z: 0.21076865936
    w: 0.977535969789
---
header: 
  seq: 112
  stamp: 
    secs: 1552998153
    nsecs: 412462331
  frame_id: "map"
pose: 
  position: 
    x: 3.39213943481
    y: 0.282608032227
    z: 0.0
  orientation: 
    x: 0.0
    y: 0.0
    z: 0.229757123843
    w: 0.973247997195
---
header: 
  seq: 113
  stamp: 
    secs: 1552998153
    nsecs: 512972955
  frame_id: "map"
pose: 
  position: 
    x: 3.42778968811
    y: 0.304502487183
    z: 0.0
  orientation: 
    x: 0.0
    y: 0.0
    z: 0.251562702489
    w: 0.967841002808
---
header: 
  seq: 114
  stamp: 
    secs: 1552998153
    nsecs: 613273432
  frame_id: "map"
pose: 
  position: 
    x: 3.46435546875
    y: 0.332069396973
    z: 0.0
  orientation: 
    x: 0.0
    y: 0.0
    z: 0.25755105746
    w: 0.966264690859
---
header: 
  seq: 115
  stamp: 
    secs: 1552998153
    nsecs: 713466738
  frame_id: "map"
pose: 
  position: 
    x: 3.50112342834
    y: 0.351974487305
    z: 0.0
  orientation: 
    x: 0.0
    y: 0.0
    z: 0.255485990346
    w: 0.966812757848
---
header: 
  seq: 116
  stamp: 
    secs: 1552998153
    nsecs: 813865393
  frame_id: "map"
pose: 
  position: 
    x: 3.54221153259
    y: 0.374244689941
    z: 0.0
  orientation: 
    x: 0.0
    y: 0.0
    z: 0.255661516548
    w: 0.966766356964
---
header: 
  seq: 117
  stamp: 
    secs: 1552998153
    nsecs: 914517396
  frame_id: "map"
pose: 
  position: 
    x: 3.58219718933
    y: 0.395359039307
    z: 0.0
  orientation: 
    x: 0.0
    y: 0.0
    z: 0.254931840507
    w: 0.966959025345
---
header: 
  seq: 118
  stamp: 
    secs: 1552998154
    nsecs:  14881569
  frame_id: "map"
pose: 
  position: 
    x: 3.62276649475
    y: 0.420137405396
    z: 0.0
  orientation: 
    x: 0.0
    y: 0.0
    z: 0.253373312405
    w: 0.96736857741
---
header: 
  seq: 119
  stamp: 
    secs: 1552998154
    nsecs: 115421678
  frame_id: "map"
pose: 
  position: 
    x: 3.66253662109
    y: 0.44140625
    z: 0.0
  orientation: 
    x: 0.0
    y: 0.0
    z: 0.251964072689
    w: 0.967736589199
---
header: 
  seq: 120
  stamp: 
    secs: 1552998154
    nsecs: 215748023
  frame_id: "map"
pose: 
  position: 
    x: 3.70318031311
    y: 0.465068817139
    z: 0.0
  orientation: 
    x: 0.0
    y: 0.0
    z: 0.249717707571
    w: 0.968318680252
---
header: 
  seq: 121
  stamp: 
    secs: 1552998154
    nsecs: 316201794
  frame_id: "map"
pose: 
  position: 
    x: 3.74625205994
    y: 0.490623474121
    z: 0.0
  orientation: 
    x: 0.0
    y: 0.0
    z: 0.247977101361
    w: 0.968765893909
---
header: 
  seq: 122
  stamp: 
    secs: 1552998154
    nsecs: 416622637
  frame_id: "map"
pose: 
  position: 
    x: 3.77899169922
    y: 0.509450912476
    z: 0.0
  orientation: 
    x: 0.0
    y: 0.0
    z: 0.24279512358
    w: 0.970077588632
---
header: 
  seq: 123
  stamp: 
    secs: 1552998154
    nsecs: 517245435
  frame_id: "map"
pose: 
  position: 
    x: 3.82073020935
    y: 0.533525466919
    z: 0.0
  orientation: 
    x: 0.0
    y: 0.0
    z: 0.243845706528
    w: 0.969814039601
---
header: 
  seq: 124
  stamp: 
    secs: 1552998154
    nsecs: 617705415
  frame_id: "map"
pose: 
  position: 
    x: 3.86043167114
    y: 0.556047439575
    z: 0.0
  orientation: 
    x: 0.0
    y: 0.0
    z: 0.241994131538
    w: 0.970277712978
---
header: 
  seq: 125
  stamp: 
    secs: 1552998154
    nsecs: 719108162
  frame_id: "map"
pose: 
  position: 
    x: 3.90034866333
    y: 0.578702926636
    z: 0.0
  orientation: 
    x: 0.0
    y: 0.0
    z: 0.240314731778
    w: 0.970695024037
---
header: 
  seq: 126
  stamp: 
    secs: 1552998154
    nsecs: 818792224
  frame_id: "map"
pose: 
  position: 
    x: 3.94355773926
    y: 0.602821350098
    z: 0.0
  orientation: 
    x: 0.0
    y: 0.0
    z: 0.238716443112
    w: 0.971089316071
---
header: 
  seq: 127
  stamp: 
    secs: 1552998154
    nsecs: 919193353
  frame_id: "map"
pose: 
  position: 
    x: 3.98272514343
    y: 0.625329971313
    z: 0.0
  orientation: 
    x: 0.0
    y: 0.0
    z: 0.237678854733
    w: 0.971343791874
---
header: 
  seq: 128
  stamp: 
    secs: 1552998155
    nsecs:  19676550
  frame_id: "map"
pose: 
  position: 
    x: 4.02376937866
    y: 0.649660110474
    z: 0.0
  orientation: 
    x: 0.0
    y: 0.0
    z: 0.235358175324
    w: 0.971908704204
---
header: 
  seq: 129
  stamp: 
    secs: 1552998155
    nsecs: 120282439
  frame_id: "map"
pose: 
  position: 
    x: 4.06617736816
    y: 0.672372817993
    z: 0.0
  orientation: 
    x: 0.0
    y: 0.0
    z: 0.234348425235
    w: 0.972152670927
---
header: 
  seq: 130
  stamp: 
    secs: 1552998155
    nsecs: 220924073
  frame_id: "map"
pose: 
  position: 
    x: 4.11040115356
    y: 0.695434570312
    z: 0.0
  orientation: 
    x: 0.0
    y: 0.0
    z: 0.234706464827
    w: 0.972066291653
---
header: 
  seq: 131
  stamp: 
    secs: 1552998155
    nsecs: 321438505
  frame_id: "map"
pose: 
  position: 
    x: 4.15105628967
    y: 0.715934753418
    z: 0.0
  orientation: 
    x: 0.0
    y: 0.0
    z: 0.234296477374
    w: 0.972165192079
---
header: 
  seq: 132
  stamp: 
    secs: 1552998155
    nsecs: 421947177
  frame_id: "map"
pose: 
  position: 
    x: 4.19316482544
    y: 0.739597320557
    z: 0.0
  orientation: 
    x: 0.0
    y: 0.0
    z: 0.233339798789
    w: 0.972395258267
---
header: 
  seq: 133
  stamp: 
    secs: 1552998155
    nsecs: 522190116
  frame_id: "map"
pose: 
  position: 
    x: 4.23625946045
    y: 0.762538909912
    z: 0.0
  orientation: 
    x: 0.0
    y: 0.0
    z: 0.23304576073
    w: 0.972465769786
---
header: 
  seq: 134
  stamp: 
    secs: 1552998155
    nsecs: 624641411
  frame_id: "map"
pose: 
  position: 
    x: 4.27669334412
    y: 0.782079696655
    z: 0.0
  orientation: 
    x: 0.0
    y: 0.0
    z: 0.23215057564
    w: 0.972679860093
---
header: 
  seq: 135
  stamp: 
    secs: 1552998155
    nsecs: 722958463
  frame_id: "map"
pose: 
  position: 
    x: 4.31831741333
    y: 0.803874969482
    z: 0.0
  orientation: 
    x: 0.0
    y: 0.0
    z: 0.229903611248
    w: 0.973213403902
---
header: 
  seq: 136
  stamp: 
    secs: 1552998155
    nsecs: 823095449
  frame_id: "map"
pose: 
  position: 
    x: 4.36063957214
    y: 0.826564788818
    z: 0.0
  orientation: 
    x: 0.0
    y: 0.0
    z: 0.221475085411
    w: 0.975166030244
---
header: 
  seq: 137
  stamp: 
    secs: 1552998155
    nsecs: 923711346
  frame_id: "map"
pose: 
  position: 
    x: 4.40230178833
    y: 0.850734710693
    z: 0.0
  orientation: 
    x: 0.0
    y: 0.0
    z: 0.21162141386
    w: 0.977351716219
---
header: 
  seq: 138
  stamp: 
    secs: 1552998156
    nsecs:  24320877
  frame_id: "map"
pose: 
  position: 
    x: 4.4457950592
    y: 0.867832183838
    z: 0.0
  orientation: 
    x: 0.0
    y: 0.0
    z: 0.200721273412
    w: 0.97964839121
---
header: 
  seq: 139
  stamp: 
    secs: 1552998156
    nsecs: 124457025
  frame_id: "map"
pose: 
  position: 
    x: 4.48922157288
    y: 0.883264541626
    z: 0.0
  orientation: 
    x: 0.0
    y: 0.0
    z: 0.192305198812
    w: 0.981335167264
---
header: 
  seq: 140
  stamp: 
    secs: 1552998156
    nsecs: 224703382
  frame_id: "map"
pose: 
  position: 
    x: 4.5310382843
    y: 0.900774002075
    z: 0.0
  orientation: 
    x: 0.0
    y: 0.0
    z: 0.180636371457
    w: 0.983549948557
---
header: 
  seq: 141
  stamp: 
    secs: 1552998156
    nsecs: 324507269
  frame_id: "map"
pose: 
  position: 
    x: 4.57727813721
    y: 0.918874740601
    z: 0.0
  orientation: 
    x: 0.0
    y: 0.0
    z: 0.16434707033
    w: 0.986402575257
---
header: 
  seq: 142
  stamp: 
    secs: 1552998156
    nsecs: 424255027
  frame_id: "map"
pose: 
  position: 
    x: 4.62152671814
    y: 0.93782043457
    z: 0.0
  orientation: 
    x: 0.0
    y: 0.0
    z: 0.142037168097
    w: 0.989861325075
---
header: 
  seq: 143
  stamp: 
    secs: 1552998156
    nsecs: 524105538
  frame_id: "map"
pose: 
  position: 
    x: 4.66109275818
    y: 0.95396232605
    z: 0.0
  orientation: 
    x: 0.0
    y: 0.0
    z: 0.116427871852
    w: 0.993199149545
---
header: 
  seq: 144
  stamp: 
    secs: 1552998156
    nsecs: 624278551
  frame_id: "map"
pose: 
  position: 
    x: 4.70397377014
    y: 0.96205329895
    z: 0.0
  orientation: 
    x: 0.0
    y: 0.0
    z: 0.0879199814037
    w: 0.996127540464
---
header: 
  seq: 145
  stamp: 
    secs: 1552998156
    nsecs: 725044212
  frame_id: "map"
pose: 
  position: 
    x: 4.7433795929
    y: 0.970390319824
    z: 0.0
  orientation: 
    x: 0.0
    y: 0.0
    z: 0.0596700668526
    w: 0.998218154073
---
header: 
  seq: 146
  stamp: 
    secs: 1552998156
    nsecs: 825362027
  frame_id: "map"
pose: 
  position: 
    x: 4.78266525269
    y: 0.982397079468
    z: 0.0
  orientation: 
    x: 0.0
    y: 0.0
    z: 0.0324423448027
    w: 0.999473608588
---
header: 
  seq: 147
  stamp: 
    secs: 1552998156
    nsecs: 925867357
  frame_id: "map"
pose: 
  position: 
    x: 4.82197761536
    y: 0.983190536499
    z: 0.0
  orientation: 
    x: 0.0
    y: 0.0
    z: 0.00499052764571
    w: 0.999987547239
---
header: 
  seq: 148
  stamp: 
    secs: 1552998157
    nsecs:  26528409
  frame_id: "map"
pose: 
  position: 
    x: 4.86113929749
    y: 0.984855651855
    z: 0.0
  orientation: 
    x: 0.0
    y: 0.0
    z: -0.0218380334259
    w: 0.999761521712
---
header: 
  seq: 149
  stamp: 
    secs: 1552998157
    nsecs: 126865681
  frame_id: "map"
pose: 
  position: 
    x: 4.89964675903
    y: 0.987043380737
    z: 0.0
  orientation: 
    x: 0.0
    y: 0.0
    z: -0.0488210221657
    w: 0.99880754292
---
header: 
  seq: 150
  stamp: 
    secs: 1552998157
    nsecs: 226890788
  frame_id: "map"
pose: 
  position: 
    x: 4.94155693054
    y: 0.986305236816
    z: 0.0
  orientation: 
    x: 0.0
    y: 0.0
    z: -0.077982949276
    w: 0.996954692863
---
header: 
  seq: 151
  stamp: 
    secs: 1552998157
    nsecs: 327305053
  frame_id: "map"
pose: 
  position: 
    x: 4.98273277283
    y: 0.973257064819
    z: 0.0
  orientation: 
    x: 0.0
    y: 0.0
    z: -0.10802548859
    w: 0.994148124685
---
header: 
  seq: 152
  stamp: 
    secs: 1552998157
    nsecs: 428007993
  frame_id: "map"
pose: 
  position: 
    x: 5.01901817322
    y: 0.983915328979
    z: 0.0
  orientation: 
    x: 0.0
    y: 0.0
    z: -0.136884539386
    w: 0.990587009241
---
header: 
  seq: 153
  stamp: 
    secs: 1552998157
    nsecs: 529010522
  frame_id: "map"
pose: 
  position: 
    x: 5.05451011658
    y: 0.969205856323
    z: 0.0
  orientation: 
    x: 0.0
    y: 0.0
    z: -0.163141814369
    w: 0.986602629433
---
header: 
  seq: 154
  stamp: 
    secs: 1552998157
    nsecs: 629565845
  frame_id: "map"
pose: 
  position: 
    x: 5.09457778931
    y: 0.957958221436
    z: 0.0
  orientation: 
    x: 0.0
    y: 0.0
    z: -0.187577085914
    w: 0.982249885131
---
header: 
  seq: 155
  stamp: 
    secs: 1552998157
    nsecs: 730187089
  frame_id: "map"
pose: 
  position: 
    x: 5.13211250305
    y: 0.9430103302
    z: 0.0
  orientation: 
    x: 0.0
    y: 0.0
    z: -0.210891743947
    w: 0.977509423144
---
header: 
  seq: 156
  stamp: 
    secs: 1552998157
    nsecs: 830666314
  frame_id: "map"
pose: 
  position: 
    x: 5.17028236389
    y: 0.930295944214
    z: 0.0
  orientation: 
    x: 0.0
    y: 0.0
    z: -0.235918481225
    w: 0.971772849084
---
header: 
  seq: 157
  stamp: 
    secs: 1552998157
    nsecs: 931296891
  frame_id: "map"
pose: 
  position: 
    x: 5.20876121521
    y: 0.908557891846
    z: 0.0
  orientation: 
    x: 0.0
    y: 0.0
    z: -0.261245854571
    w: 0.965272294987
---
header: 
  seq: 158
  stamp: 
    secs: 1552998158
    nsecs:  31865564
  frame_id: "map"
pose: 
  position: 
    x: 5.24666786194
    y: 0.87806892395
    z: 0.0
  orientation: 
    x: 0.0
    y: 0.0
    z: -0.28506394394
    w: 0.958508501718
---
header: 
  seq: 159
  stamp: 
    secs: 1552998158
    nsecs: 132488990
  frame_id: "map"
pose: 
  position: 
    x: 5.2827129364
    y: 0.854616165161
    z: 0.0
  orientation: 
    x: 0.0
    y: 0.0
    z: -0.309238783681
    w: 0.950984423988
---
header: 
  seq: 160
  stamp: 
    secs: 1552998158
    nsecs: 233058559
  frame_id: "map"
pose: 
  position: 
    x: 5.31653213501
    y: 0.83696937561
    z: 0.0
  orientation: 
    x: 0.0
    y: 0.0
    z: -0.333482656297
    w: 0.942756234638
---
header: 
  seq: 161
  stamp: 
    secs: 1552998158
    nsecs: 333692386
  frame_id: "map"
pose: 
  position: 
    x: 5.3489112854
    y: 0.807670593262
    z: 0.0
  orientation: 
    x: 0.0
    y: 0.0
    z: -0.354805120224
    w: 0.934940279731
---
header: 
  seq: 162
  stamp: 
    secs: 1552998158
    nsecs: 433901086
  frame_id: "map"
pose: 
  position: 
    x: 5.38271903992
    y: 0.768182754517
    z: 0.0
  orientation: 
    x: 0.0
    y: 0.0
    z: -0.376217428805
    w: 0.926531405978
---
header: 
  seq: 163
  stamp: 
    secs: 1552998158
    nsecs: 534709859
  frame_id: "map"
pose: 
  position: 
    x: 5.41708183289
    y: 0.707168579102
    z: 0.0
  orientation: 
    x: 0.0
    y: 0.0
    z: -0.398953028088
    w: 0.916971363446
---
header: 
  seq: 164
  stamp: 
    secs: 1552998158
    nsecs: 635150498
  frame_id: "map"
pose: 
  position: 
    x: 5.44627189636
    y: 0.681669235229
    z: 0.0
  orientation: 
    x: 0.0
    y: 0.0
    z: -0.42292577614
    w: 0.906164327193
---
header: 
  seq: 165
  stamp: 
    secs: 1552998158
    nsecs: 735624578
  frame_id: "map"
pose: 
  position: 
    x: 5.47389411926
    y: 0.641906738281
    z: 0.0
  orientation: 
    x: 0.0
    y: 0.0
    z: -0.4463012167
    w: 0.894882799014
---
header: 
  seq: 166
  stamp: 
    secs: 1552998158
    nsecs: 835912512
  frame_id: "map"
pose: 
  position: 
    x: 5.49957275391
    y: 0.610464096069
    z: 0.0
  orientation: 
    x: 0.0
    y: 0.0
    z: -0.468085193714
    w: 0.883683343413
---
header: 
  seq: 167
  stamp: 
    secs: 1552998158
    nsecs: 936461105
  frame_id: "map"
pose: 
  position: 
    x: 5.5234375
    y: 0.57266998291
    z: 0.0
  orientation: 
    x: 0.0
    y: 0.0
    z: -0.487787614953
    w: 0.872962337503
---
header: 
  seq: 168
  stamp: 
    secs: 1552998159
    nsecs:  37008446
  frame_id: "map"
pose: 
  position: 
    x: 5.54592704773
    y: 0.527908325195
    z: 0.0
  orientation: 
    x: 0.0
    y: 0.0
    z: -0.506202696392
    w: 0.862414534992
---
header: 
  seq: 169
  stamp: 
    secs: 1552998159
    nsecs: 137516202
  frame_id: "map"
pose: 
  position: 
    x: 5.56661605835
    y: 0.489171981812
    z: 0.0
  orientation: 
    x: 0.0
    y: 0.0
    z: -0.525414407112
    w: 0.850846461354
---
header: 
  seq: 170
  stamp: 
    secs: 1552998159
    nsecs: 237950230
  frame_id: "map"
pose: 
  position: 
    x: 5.58461380005
    y: 0.448528289795
    z: 0.0
  orientation: 
    x: 0.0
    y: 0.0
    z: -0.546147822823
    w: 0.837688817895
---
header: 
  seq: 171
  stamp: 
    secs: 1552998159
    nsecs: 338577380
  frame_id: "map"
pose: 
  position: 
    x: 5.60359382629
    y: 0.400531768799
    z: 0.0
  orientation: 
    x: 0.0
    y: 0.0
    z: -0.567128589298
    w: 0.823629263201
---
header: 
  seq: 172
  stamp: 
    secs: 1552998159
    nsecs: 439010127
  frame_id: "map"
pose: 
  position: 
    x: 5.61714553833
    y: 0.361642837524
    z: 0.0
  orientation: 
    x: 0.0
    y: 0.0
    z: -0.587219150778
    w: 0.809427988743
---
header: 
  seq: 173
  stamp: 
    secs: 1552998159
    nsecs: 539529883
  frame_id: "map"
pose: 
  position: 
    x: 5.63197517395
    y: 0.312599182129
    z: 0.0
  orientation: 
    x: 0.0
    y: 0.0
    z: -0.605334658422
    w: 0.79597107442
---
header: 
  seq: 174
  stamp: 
    secs: 1552998159
    nsecs: 639873574
  frame_id: "map"
pose: 
  position: 
    x: 5.64167785645
    y: 0.272350311279
    z: 0.0
  orientation: 
    x: 0.0
    y: 0.0
    z: -0.62279294725
    w: 0.782386697775
---
header: 
  seq: 175
  stamp: 
    secs: 1552998159
    nsecs: 740521396
  frame_id: "map"
pose: 
  position: 
    x: 5.6492023468
    y: 0.228050231934
    z: 0.0
  orientation: 
    x: 0.0
    y: 0.0
    z: -0.640062082004
    w: 0.768323194483
---
header: 
  seq: 176
  stamp: 
    secs: 1552998159
    nsecs: 841072768
  frame_id: "map"
pose: 
  position: 
    x: 5.6582660675
    y: 0.188257217407
    z: 0.0
  orientation: 
    x: 0.0
    y: 0.0
    z: -0.658496570749
    w: 0.752583727111
---
header: 
  seq: 177
  stamp: 
    secs: 1552998159
    nsecs: 941692283
  frame_id: "map"
pose: 
  position: 
    x: 5.66094398499
    y: 0.143369674683
    z: 0.0
  orientation: 
    x: 0.0
    y: 0.0
    z: -0.671436612439
    w: 0.741061991656
---
header: 
  seq: 178
  stamp: 
    secs: 1552998160
    nsecs:  42327546
  frame_id: "map"
pose: 
  position: 
    x: 5.66779327393
    y: 0.0974235534668
    z: 0.0
  orientation: 
    x: 0.0
    y: 0.0
    z: -0.672927867011
    w: 0.739708108513
---
header: 
  seq: 179
  stamp: 
    secs: 1552998160
    nsecs: 142895801
  frame_id: "map"
pose: 
  position: 
    x: 5.67192459106
    y: 0.0409088134766
    z: 0.0
  orientation: 
    x: 0.0
    y: 0.0
    z: -0.672906350787
    w: 0.739727681698
---
header: 
  seq: 180
  stamp: 
    secs: 1552998160
    nsecs: 243046610
  frame_id: "map"
pose: 
  position: 
    x: 5.68239974976
    y: -0.0212421417236
    z: 0.0
  orientation: 
    x: 0.0
    y: 0.0
    z: -0.676095440661
    w: 0.736814057356
---
header: 
  seq: 181
  stamp: 
    secs: 1552998160
    nsecs: 343727186
  frame_id: "map"
pose: 
  position: 
    x: 5.68684959412
    y: -0.068151473999
    z: 0.0
  orientation: 
    x: 0.0
    y: 0.0
    z: -0.67836416517
    w: 0.734725839625
---
header: 
  seq: 182
  stamp: 
    secs: 1552998160
    nsecs: 444139439
  frame_id: "map"
pose: 
  position: 
    x: 5.69212150574
    y: -0.117124557495
    z: 0.0
  orientation: 
    x: 0.0
    y: 0.0
    z: -0.679599745061
    w: 0.733583114932
---
header: 
  seq: 183
  stamp: 
    secs: 1552998160
    nsecs: 544697709
  frame_id: "map"
pose: 
  position: 
    x: 5.69478797913
    y: -0.166553497314
    z: 0.0
  orientation: 
    x: 0.0
    y: 0.0
    z: -0.680070610228
    w: 0.733146619104
---
header: 
  seq: 184
  stamp: 
    secs: 1552998160
    nsecs: 644938183
  frame_id: "map"
pose: 
  position: 
    x: 5.70035934448
    y: -0.210851669312
    z: 0.0
  orientation: 
    x: 0.0
    y: 0.0
    z: -0.680622422469
    w: 0.732634368585
---
header: 
  seq: 185
  stamp: 
    secs: 1552998160
    nsecs: 745419941
  frame_id: "map"
pose: 
  position: 
    x: 5.70524406433
    y: -0.257785797119
    z: 0.0
  orientation: 
    x: 0.0
    y: 0.0
    z: -0.682211046764
    w: 0.731155310227
---
header: 
  seq: 186
  stamp: 
    secs: 1552998160
    nsecs: 845704320
  frame_id: "map"
pose: 
  position: 
    x: 5.71000480652
    y: -0.307899475098
    z: 0.0
  orientation: 
    x: 0.0
    y: 0.0
    z: -0.683519103275
    w: 0.729932623917
---
header: 
  seq: 187
  stamp: 
    secs: 1552998160
    nsecs: 946268233
  frame_id: "map"
pose: 
  position: 
    x: 5.71473312378
    y: -0.363603591919
    z: 0.0
  orientation: 
    x: 0.0
    y: 0.0
    z: -0.686023870304
    w: 0.727579033077
---
header: 
  seq: 188
  stamp: 
    secs: 1552998161
    nsecs:  46573178
  frame_id: "map"
pose: 
  position: 
    x: 5.7149848938
    y: -0.404430389404
    z: 0.0
  orientation: 
    x: 0.0
    y: 0.0
    z: -0.68861787257
    w: 0.725124420756
---
header: 
  seq: 189
  stamp: 
    secs: 1552998161
    nsecs: 146746698
  frame_id: "map"
pose: 
  position: 
    x: 5.72094154358
    y: -0.493703842163
    z: 0.0
  orientation: 
    x: 0.0
    y: 0.0
    z: -0.688980668024
    w: 0.724779717631
---
header: 
  seq: 190
  stamp: 
    secs: 1552998161
    nsecs: 247156156
  frame_id: "map"
pose: 
  position: 
    x: 5.72267341614
    y: -0.53692817688
    z: 0.0
  orientation: 
    x: 0.0
    y: 0.0
    z: -0.689978457849
    w: 0.723829902466
---
header: 
  seq: 191
  stamp: 
    secs: 1552998161
    nsecs: 347624879
  frame_id: "map"
pose: 
  position: 
    x: 5.72803115845
    y: -0.601947784424
    z: 0.0
  orientation: 
    x: 0.0
    y: 0.0
    z: -0.690504800048
    w: 0.723327810271
---
header: 
  seq: 192
  stamp: 
    secs: 1552998161
    nsecs: 448151587
  frame_id: "map"
pose: 
  position: 
    x: 5.73238563538
    y: -0.658061981201
    z: 0.0
  orientation: 
    x: 0.0
    y: 0.0
    z: -0.691760263181
    w: 0.722127231369
---
header: 
  seq: 193
  stamp: 
    secs: 1552998161
    nsecs: 548615254
  frame_id: "map"
pose: 
  position: 
    x: 5.73696517944
    y: -0.712064743042
    z: 0.0
  orientation: 
    x: 0.0
    y: 0.0
    z: -0.693006076037
    w: 0.720931743355
---
header: 
  seq: 194
  stamp: 
    secs: 1552998161
    nsecs: 649079529
  frame_id: "map"
pose: 
  position: 
    x: 5.73622131348
    y: -0.767248153687
    z: 0.0
  orientation: 
    x: 0.0
    y: 0.0
    z: -0.694592596862
    w: 0.719403311352
---
header: 
  seq: 195
  stamp: 
    secs: 1552998161
    nsecs: 749648605
  frame_id: "map"
pose: 
  position: 
    x: 5.73934555054
    y: -0.832746505737
    z: 0.0
  orientation: 
    x: 0.0
    y: 0.0
    z: -0.696490773938
    w: 0.717565747385
---
header: 
  seq: 196
  stamp: 
    secs: 1552998161
    nsecs: 850116592
  frame_id: "map"
pose: 
  position: 
    x: 5.73997116089
    y: -0.877777099609
    z: 0.0
  orientation: 
    x: 0.0
    y: 0.0
    z: -0.698125521972
    w: 0.715975387546
---
header: 
  seq: 197
  stamp: 
    secs: 1552998161
    nsecs: 950750928
  frame_id: "map"
pose: 
  position: 
    x: 5.74230957031
    y: -0.931476593018
    z: 0.0
  orientation: 
    x: 0.0
    y: 0.0
    z: -0.699104866927
    w: 0.71501915012
---
header: 
  seq: 198
  stamp: 
    secs: 1552998162
    nsecs:  51456992
  frame_id: "map"
pose: 
  position: 
    x: 5.7488899231
    y: -0.998859405518
    z: 0.0
  orientation: 
    x: 0.0
    y: 0.0
    z: -0.698532191746
    w: 0.715578630965
---
header: 
  seq: 199
  stamp: 
    secs: 1552998162
    nsecs: 152117809
  frame_id: "map"
pose: 
  position: 
    x: 5.74930953979
    y: -1.02461242676
    z: 0.0
  orientation: 
    x: 0.0
    y: 0.0
    z: -0.698442788101
    w: 0.715665893941
---
header: 
  seq: 200
  stamp: 
    secs: 1552998162
    nsecs: 252613983
  frame_id: "map"
pose: 
  position: 
    x: 5.74962425232
    y: -1.07138061523
    z: 0.0
  orientation: 
    x: 0.0
    y: 0.0
    z: -0.697267928042
    w: 0.716810600175
---
header: 
  seq: 201
  stamp: 
    secs: 1552998162
    nsecs: 353242895
  frame_id: "map"
pose: 
  position: 
    x: 5.74886703491
    y: -1.11977386475
    z: 0.0
  orientation: 
    x: 0.0
    y: 0.0
    z: -0.697418134677
    w: 0.716664458044
---
header: 
  seq: 202
  stamp: 
    secs: 1552998162
    nsecs: 453642941
  frame_id: "map"
pose: 
  position: 
    x: 5.74646186829
    y: -1.14966011047
    z: 0.0
  orientation: 
    x: 0.0
    y: 0.0
    z: -0.697373195516
    w: 0.716708187602
---
header: 
  seq: 203
  stamp: 
    secs: 1552998162
    nsecs: 554155915
  frame_id: "map"
pose: 
  position: 
    x: 5.74504852295
    y: -1.17074966431
    z: 0.0
  orientation: 
    x: 0.0
    y: 0.0
    z: -0.697437954881
    w: 0.716645169587
---
header: 
  seq: 204
  stamp: 
    secs: 1552998162
    nsecs: 654722171
  frame_id: "map"
pose: 
  position: 
    x: 5.75080490112
    y: -1.23659515381
    z: 0.0
  orientation: 
    x: 0.0
    y: 0.0
    z: -0.695560021596
    w: 0.718467992577
---
header: 
  seq: 205
  stamp: 
    secs: 1552998162
    nsecs: 755244393
  frame_id: "map"
pose: 
  position: 
    x: 5.75395584106
    y: -1.27951812744
    z: 0.0
  orientation: 
    x: 0.0
    y: 0.0
    z: -0.693236020924
    w: 0.720710634925
---
header: 
  seq: 206
  stamp: 
    secs: 1552998162
    nsecs: 855684759
  frame_id: "map"
pose: 
  position: 
    x: 5.75938796997
    y: -1.33767127991
    z: 0.0
  orientation: 
    x: 0.0
    y: 0.0
    z: -0.691569304082
    w: 0.72231011183
---
header: 
  seq: 207
  stamp: 
    secs: 1552998162
    nsecs: 956370639
  frame_id: "map"
pose: 
  position: 
    x: 5.760181427
    y: -1.38909721375
    z: 0.0
  orientation: 
    x: 0.0
    y: 0.0
    z: -0.688296415197
    w: 0.725429558832
---
header: 
  seq: 208
  stamp: 
    secs: 1552998163
    nsecs:  56788123
  frame_id: "map"
pose: 
  position: 
    x: 5.758020401
    y: -1.41665649414
    z: 0.0
  orientation: 
    x: 0.0
    y: 0.0
    z: -0.686100366058
    w: 0.727506898727
---
header: 
  seq: 209
  stamp: 
    secs: 1552998163
    nsecs: 157284169
  frame_id: "map"
pose: 
  position: 
    x: 5.75923538208
    y: -1.44323730469
    z: 0.0
  orientation: 
    x: 0.0
    y: 0.0
    z: -0.684587433008
    w: 0.728930755674
---
header: 
  seq: 210
  stamp: 
    secs: 1552998163
    nsecs: 257812246
  frame_id: "map"
pose: 
  position: 
    x: 5.76831817627
    y: -1.50959396362
    z: 0.0
  orientation: 
    x: 0.0
    y: 0.0
    z: -0.683949359393
    w: 0.729529487949
---
header: 
  seq: 211
  stamp: 
    secs: 1552998163
    nsecs: 358175394
  frame_id: "map"
pose: 
  position: 
    x: 5.76987457275
    y: -1.53649902344
    z: 0.0
  orientation: 
    x: 0.0
    y: 0.0
    z: -0.681106643702
    w: 0.732184225387
---
header: 
  seq: 212
  stamp: 
    secs: 1552998163
    nsecs: 458595375
  frame_id: "map"
pose: 
  position: 
    x: 5.77856636047
    y: -1.59794616699
    z: 0.0
  orientation: 
    x: 0.0
    y: 0.0
    z: -0.678975806671
    w: 0.734160645877
---
header: 
  seq: 213
  stamp: 
    secs: 1552998163
    nsecs: 559166333
  frame_id: "map"
pose: 
  position: 
    x: 5.78421401978
    y: -1.65093421936
    z: 0.0
  orientation: 
    x: 0.0
    y: 0.0
    z: -0.676931019575
    w: 0.736046462349
---
header: 
  seq: 214
  stamp: 
    secs: 1552998163
    nsecs: 659686859
  frame_id: "map"
pose: 
  position: 
    x: 5.78736114502
    y: -1.69421005249
    z: 0.0
  orientation: 
    x: 0.0
    y: 0.0
    z: -0.673845831716
    w: 0.738871974756
---
header: 
  seq: 215
  stamp: 
    secs: 1552998163
    nsecs: 760115447
  frame_id: "map"
pose: 
  position: 
    x: 5.79120635986
    y: -1.74101829529
    z: 0.0
  orientation: 
    x: 0.0
    y: 0.0
    z: -0.671677395839
    w: 0.740843759452
---
header: 
  seq: 216
  stamp: 
    secs: 1552998163
    nsecs: 860595781
  frame_id: "map"
pose: 
  position: 
    x: 5.79429626465
    y: -1.77375411987
    z: 0.0
  orientation: 
    x: 0.0
    y: 0.0
    z: -0.670298160179
    w: 0.742091892194
---
header: 
  seq: 217
  stamp: 
    secs: 1552998163
    nsecs: 961202808
  frame_id: "map"
pose: 
  position: 
    x: 5.79996299744
    y: -1.80515861511
    z: 0.0
  orientation: 
    x: 0.0
    y: 0.0
    z: -0.66802024491
    w: 0.744143099404
---
header: 
  seq: 218
  stamp: 
    secs: 1552998164
    nsecs:  61717289
  frame_id: "map"
pose: 
  position: 
    x: 5.80969047546
    y: -1.87649154663
    z: 0.0
  orientation: 
    x: 0.0
    y: 0.0
    z: -0.665799384443
    w: 0.746130806009
---
header: 
  seq: 219
  stamp: 
    secs: 1552998164
    nsecs: 162167449
  frame_id: "map"
pose: 
  position: 
    x: 5.81509971619
    y: -1.92066955566
    z: 0.0
  orientation: 
    x: 0.0
    y: 0.0
    z: -0.66239208702
    w: 0.749157341987
---
header: 
  seq: 220
  stamp: 
    secs: 1552998164
    nsecs: 262728043
  frame_id: "map"
pose: 
  position: 
    x: 5.82410049438
    y: -1.97838401794
    z: 0.0
  orientation: 
    x: 0.0
    y: 0.0
    z: -0.65989229777
    w: 0.75136020346
---
header: 
  seq: 221
  stamp: 
    secs: 1552998164
    nsecs: 363358525
  frame_id: "map"
pose: 
  position: 
    x: 5.83374404907
    y: -2.03629684448
    z: 0.0
  orientation: 
    x: 0.0
    y: 0.0
    z: -0.656735282685
    w: 0.754121189516
---
header: 
  seq: 222
  stamp: 
    secs: 1552998164
    nsecs: 463995855
  frame_id: "map"
pose: 
  position: 
    x: 5.84445571899
    y: -2.10705375671
    z: 0.0
  orientation: 
    x: 0.0
    y: 0.0
    z: -0.654817253738
    w: 0.755787247978
---
header: 
  seq: 223
  stamp: 
    secs: 1552998164
    nsecs: 564461535
  frame_id: "map"
pose: 
  position: 
    x: 5.85282516479
    y: -2.15223312378
    z: 0.0
  orientation: 
    x: 0.0
    y: 0.0
    z: -0.652914321112
    w: 0.757431772035
---
header: 
  seq: 224
  stamp: 
    secs: 1552998164
    nsecs: 664820911
  frame_id: "map"
pose: 
  position: 
    x: 5.86238479614
    y: -2.19778060913
    z: 0.0
  orientation: 
    x: 0.0
    y: 0.0
    z: -0.649757638478
    w: 0.760141441601
---
header: 
  seq: 225
  stamp: 
    secs: 1552998164
    nsecs: 765414368
  frame_id: "map"
pose: 
  position: 
    x: 5.8719367981
    y: -2.26295280457
    z: 0.0
  orientation: 
    x: 0.0
    y: 0.0
    z: -0.647470098665
    w: 0.76209085504
---
header: 
  seq: 226
  stamp: 
    secs: 1552998164
    nsecs: 865924273
  frame_id: "map"
pose: 
  position: 
    x: 5.88300704956
    y: -2.3164100647
    z: 0.0
  orientation: 
    x: 0.0
    y: 0.0
    z: -0.644168441586
    w: 0.764883663615
---
header: 
  seq: 227
  stamp: 
    secs: 1552998164
    nsecs: 966616935
  frame_id: "map"
pose: 
  position: 
    x: 5.89255332947
    y: -2.35875511169
    z: 0.0
  orientation: 
    x: 0.0
    y: 0.0
    z: -0.641380784157
    w: 0.767222711939
---
header: 
  seq: 228
  stamp: 
    secs: 1552998165
    nsecs:  66970909
  frame_id: "map"
pose: 
  position: 
    x: 5.90482711792
    y: -2.4205532074
    z: 0.0
  orientation: 
    x: 0.0
    y: 0.0
    z: -0.639135813082
    w: 0.769093890521
---
header: 
  seq: 229
  stamp: 
    secs: 1552998165
    nsecs: 167618678
  frame_id: "map"
pose: 
  position: 
    x: 5.91357421875
    y: -2.48768997192
    z: 0.0
  orientation: 
    x: 0.0
    y: 0.0
    z: -0.635770088907
    w: 0.771878483993
---
header: 
  seq: 230
  stamp: 
    secs: 1552998165
    nsecs: 267800778
  frame_id: "map"
pose: 
  position: 
    x: 5.92282676697
    y: -2.53387832642
    z: 0.0
  orientation: 
    x: 0.0
    y: 0.0
    z: -0.632517260198
    w: 0.774546264307
---
header: 
  seq: 231
  stamp: 
    secs: 1552998165
    nsecs: 368433091
  frame_id: "map"
pose: 
  position: 
    x: 5.93836402893
    y: -2.59860229492
    z: 0.0
  orientation: 
    x: 0.0
    y: 0.0
    z: -0.630481353069
    w: 0.776204395396
---
header: 
  seq: 232
  stamp: 
    secs: 1552998165
    nsecs: 468906650
  frame_id: "map"
pose: 
  position: 
    x: 5.95003318787
    y: -2.63323402405
    z: 0.0
  orientation: 
    x: 0.0
    y: 0.0
    z: -0.628342431767
    w: 0.777936879471
---
header: 
  seq: 233
  stamp: 
    secs: 1552998165
    nsecs: 569461810
  frame_id: "map"
pose: 
  position: 
    x: 5.96290016174
    y: -2.69183158875
    z: 0.0
  orientation: 
    x: 0.0
    y: 0.0
    z: -0.625021004926
    w: 0.780607931936
---
header: 
  seq: 234
  stamp: 
    secs: 1552998165
    nsecs: 669785672
  frame_id: "map"
pose: 
  position: 
    x: 5.97316551208
    y: -2.7271900177
    z: 0.0
  orientation: 
    x: 0.0
    y: 0.0
    z: -0.622267336251
    w: 0.782804804683
---
header: 
  seq: 235
  stamp: 
    secs: 1552998165
    nsecs: 770221919
  frame_id: "map"
pose: 
  position: 
    x: 5.98910903931
    y: -2.80275917053
    z: 0.0
  orientation: 
    x: 0.0
    y: 0.0
    z: -0.619969611978
    w: 0.784625821792
---
header: 
  seq: 236
  stamp: 
    secs: 1552998165
    nsecs: 870642774
  frame_id: "map"
pose: 
  position: 
    x: 6.00262451172
    y: -2.86448478699
    z: 0.0
  orientation: 
    x: 0.0
    y: 0.0
    z: -0.617458222359
    w: 0.786603676346
---
header: 
  seq: 237
  stamp: 
    secs: 1552998165
    nsecs: 970940238
  frame_id: "map"
pose: 
  position: 
    x: 6.01579093933
    y: -2.90646743774
    z: 0.0
  orientation: 
    x: 0.0
    y: 0.0
    z: -0.618774830717
