header: 
  seq: 78
  stamp: 
    secs: 1333389287
    nsecs: 597682472
  frame_id: "map"
pose: 
  position: 
    x: 0.0040283203125
    y: 0.000408172607422
    z: 0.0
  orientation: 
    x: 0.0
    y: 0.0
    z: 0.000362473939524
    w: 0.999999934306
---
header: 
  seq: 79
  stamp: 
    secs: 1333389287
    nsecs: 698691472
  frame_id: "map"
pose: 
  position: 
    x: 0.00382232666016
    y: 0.00170135498047
    z: 0.0
  orientation: 
    x: 0.0
    y: 0.0
    z: 0.000291596802941
    w: 0.999999957486
---
header: 
  seq: 80
  stamp: 
    secs: 1333389287
    nsecs: 748691472
  frame_id: "map"
pose: 
  position: 
    x: 0.00205612182617
    y: 0.00277709960938
    z: 0.0
  orientation: 
    x: 0.0
    y: 0.0
    z: 0.000133725406669
    w: 0.999999991059
---
header: 
  seq: 81
  stamp: 
    secs: 1333389287
    nsecs: 848686472
  frame_id: "map"
pose: 
  position: 
    x: 0.00240325927734
    y: 0.00173950195312
    z: 0.0
  orientation: 
    x: 0.0
    y: 0.0
    z: 0.000151400468316
    w: 0.999999988539
---
header: 
  seq: 82
  stamp: 
    secs: 1333389287
    nsecs: 898687472
  frame_id: "map"
pose: 
  position: 
    x: 0.00251388549805
    y: 0.00132369995117
    z: 0.0
  orientation: 
    x: 0.0
    y: 0.0
    z: 0.000204901777055
    w: 0.999999979008
---
header: 
  seq: 83
  stamp: 
    secs: 1333389287
    nsecs: 948682472
  frame_id: "map"
pose: 
  position: 
    x: 0.00300979614258
    y: 0.000804901123047
    z: 0.0
  orientation: 
    x: 0.0
    y: 0.0
    z: 0.000161633360427
    w: 0.999999986937
---
header: 
  seq: 84
  stamp: 
    secs: 1333389288
    nsecs:  48677472
  frame_id: "map"
pose: 
  position: 
    x: 0.00343704223633
    y: 0.00144577026367
    z: 0.0
  orientation: 
    x: 0.0
    y: 0.0
    z: 0.000123647215927
    w: 0.999999992356
---
header: 
  seq: 85
  stamp: 
    secs: 1333389288
    nsecs:  99690472
  frame_id: "map"
pose: 
  position: 
    x: 0.00288772583008
    y: 0.00128936767578
    z: 0.0
  orientation: 
    x: 0.0
    y: 0.0
    z: 0.000151238374534
    w: 0.999999988563
---
header: 
  seq: 86
  stamp: 
    secs: 1333389288
    nsecs: 199686472
  frame_id: "map"
pose: 
  position: 
    x: 0.00347137451172
    y: 0.000846862792969
    z: 0.0
  orientation: 
    x: 0.0
    y: 0.0
    z: 8.87146451278e-05
    w: 0.999999996065
---
header: 
  seq: 87
  stamp: 
    secs: 1333389288
    nsecs: 249687472
  frame_id: "map"
pose: 
  position: 
    x: 0.00305938720703
    y: 0.00147247314453
    z: 0.0
  orientation: 
    x: 0.0
    y: 0.0
    z: 0.000291667787181
    w: 0.999999957465
---
header: 
  seq: 88
  stamp: 
    secs: 1333389288
    nsecs: 349680472
  frame_id: "map"
pose: 
  position: 
    x: 0.00152587890625
    y: 0.00199127197266
    z: 0.0
  orientation: 
    x: 0.0
    y: 0.0
    z: 0.000445327415779
    w: 0.999999900842
---
header: 
  seq: 89
  stamp: 
    secs: 1333389288
    nsecs: 399676472
  frame_id: "map"
pose: 
  position: 
    x: 0.00251007080078
    y: 0.00187301635742
    z: 0.0
  orientation: 
    x: 0.0
    y: 0.0
    z: 0.000124240715785
    w: 0.999999992282
---
header: 
  seq: 90
  stamp: 
    secs: 1333389288
    nsecs: 449678472
  frame_id: "map"
pose: 
  position: 
    x: 0.00385665893555
    y: 0.000988006591797
    z: 0.0
  orientation: 
    x: 0.0
    y: 0.0
    z: 0.000516255479657
    w: 0.99999986674
---
header: 
  seq: 91
  stamp: 
    secs: 1333389288
    nsecs: 550687472
  frame_id: "map"
pose: 
  position: 
    x: 0.00347900390625
    y: 0.0010986328125
    z: 0.0
  orientation: 
    x: 0.0
    y: 0.0
    z: 0.000292162348551
    w: 0.999999957321
---
header: 
  seq: 92
  stamp: 
    secs: 1333389288
    nsecs: 600685472
  frame_id: "map"
pose: 
  position: 
    x: 0.00202560424805
    y: 0.00187301635742
    z: 0.0
  orientation: 
    x: 0.0
    y: 0.0
    z: 0.000230004121268
    w: 0.999999973549
---
header: 
  seq: 93
  stamp: 
    secs: 1333389288
    nsecs: 700680472
  frame_id: "map"
pose: 
  position: 
    x: 0.00272369384766
    y: 0.00117874145508
    z: 0.0
  orientation: 
    x: 0.0
    y: 0.0
    z: 0.000623718794973
    w: 0.999999805487
---
header: 
  seq: 94
  stamp: 
    secs: 1333389288
    nsecs: 750678472
  frame_id: "map"
pose: 
  position: 
    x: 0.00273513793945
    y: 0.00216674804688
    z: 0.0
  orientation: 
    x: 0.0
    y: 0.0
    z: 0.000299007249033
    w: 0.999999955297
---
header: 
  seq: 95
  stamp: 
    secs: 1333389288
    nsecs: 800676472
  frame_id: "map"
pose: 
  position: 
    x: 0.00227737426758
    y: 0.0023078918457
    z: 0.0
  orientation: 
    x: 0.0
    y: 0.0
    z: 0.000260078549014
    w: 0.99999996618
---
header: 
  seq: 96
  stamp: 
    secs: 1333389288
    nsecs: 901688472
  frame_id: "map"
pose: 
  position: 
    x: 0.0020751953125
    y: 0.0018424987793
    z: 0.0
  orientation: 
    x: 0.0
    y: 0.0
    z: 0.000153316358901
    w: 0.999999988247
---
header: 
  seq: 97
  stamp: 
    secs: 1333389288
    nsecs: 951684472
  frame_id: "map"
pose: 
  position: 
    x: 0.00319290161133
    y: 0.00155639648438
    z: 0.0
  orientation: 
    x: 0.0
    y: 0.0
    z: 0.000174305124373
    w: 0.999999984809
---
header: 
  seq: 98
  stamp: 
    secs: 1333389289
    nsecs:  51680472
  frame_id: "map"
pose: 
  position: 
    x: 0.00239944458008
    y: 0.00155639648438
    z: 0.0
  orientation: 
    x: 0.0
    y: 0.0
    z: 0.000116274066124
    w: 0.99999999324
---
header: 
  seq: 99
  stamp: 
    secs: 1333389289
    nsecs: 101682472
  frame_id: "map"
pose: 
  position: 
    x: 0.00358200073242
    y: 0.000816345214844
    z: 0.0
  orientation: 
    x: 0.0
    y: 0.0
    z: 0.000140611489306
    w: 0.999999990114
---
header: 
  seq: 100
  stamp: 
    secs: 1333389289
    nsecs: 201675472
  frame_id: "map"
pose: 
  position: 
    x: 0.00209426879883
    y: 0.0019645690918
    z: 0.0
  orientation: 
    x: 0.0
    y: 0.0
    z: 0.000224428293157
    w: 0.999999974816
---
header: 
  seq: 101
  stamp: 
    secs: 1333389289
    nsecs: 251672472
  frame_id: "map"
pose: 
  position: 
    x: 0.0029296875
    y: 0.00139617919922
    z: 0.0
  orientation: 
    x: 0.0
    y: 0.0
    z: 0.000216671322174
    w: 0.999999976527
---
header: 
  seq: 102
  stamp: 
    secs: 1333389289
    nsecs: 302689472
  frame_id: "map"
pose: 
  position: 
    x: 0.0015983581543
    y: 0.00221633911133
    z: 0.0
  orientation: 
    x: 0.0
    y: 0.0
    z: 0.000175541338657
    w: 0.999999984593
---
header: 
  seq: 103
  stamp: 
    secs: 1333389289
    nsecs: 402685472
  frame_id: "map"
pose: 
  position: 
    x: 0.00368118286133
    y: 0.00275421142578
    z: 0.0
  orientation: 
    x: 0.0
    y: 0.0
    z: -5.87304157303e-06
    w: 0.999999999983
---
header: 
  seq: 104
  stamp: 
    secs: 1333389289
    nsecs: 452745472
  frame_id: "map"
pose: 
  position: 
    x: 0.0024299621582
    y: 0.00294876098633
    z: 0.0
  orientation: 
    x: 0.0
    y: 0.0
    z: 0.000252581024185
    w: 0.999999968101
---
header: 
  seq: 105
  stamp: 
    secs: 1333389289
    nsecs: 552676472
  frame_id: "map"
pose: 
  position: 
    x: 0.00216674804688
    y: 0.00163650512695
    z: 0.0
  orientation: 
    x: 0.0
    y: 0.0
    z: 0.000487442778446
    w: 0.9999998812
---
header: 
  seq: 106
  stamp: 
    secs: 1333389289
    nsecs: 602674472
  frame_id: "map"
pose: 
  position: 
    x: 0.00241088867188
    y: 0.00154876708984
    z: 0.0
  orientation: 
    x: 0.0
    y: 0.0
    z: 0.000161546427287
    w: 0.999999986951
---
header: 
  seq: 107
  stamp: 
    secs: 1333389289
    nsecs: 652668472
  frame_id: "map"
pose: 
  position: 
    x: 0.00267791748047
    y: 0.0030517578125
    z: 0.0
  orientation: 
    x: 0.0
    y: 0.0
    z: 0.000113106769036
    w: 0.999999993603
---
header: 
  seq: 108
  stamp: 
    secs: 1333389289
    nsecs: 753687472
  frame_id: "map"
pose: 
  position: 
    x: 0.00290679931641
    y: 0.00191497802734
    z: 0.0
  orientation: 
    x: 0.0
    y: 0.0
    z: 0.000127282327978
    w: 0.9999999919
---
header: 
  seq: 109
  stamp: 
    secs: 1333389289
    nsecs: 803679472
  frame_id: "map"
pose: 
  position: 
    x: 0.00182342529297
    y: 0.00230026245117
    z: 0.0
  orientation: 
    x: 0.0
    y: 0.0
    z: 0.000192900623628
    w: 0.999999981395
---
header: 
  seq: 110
  stamp: 
    secs: 1333389289
    nsecs: 903678472
  frame_id: "map"
pose: 
  position: 
    x: 0.00287628173828
    y: 0.00165557861328
    z: 0.0
  orientation: 
    x: 0.0
    y: 0.0
    z: 0.000176595697659
    w: 0.999999984407
---
header: 
  seq: 111
  stamp: 
    secs: 1333389289
    nsecs: 953675472
  frame_id: "map"
pose: 
  position: 
    x: 0.00300216674805
    y: 0.00179290771484
    z: 0.0
  orientation: 
    x: 0.0
    y: 0.0
    z: 0.000320304179675
    w: 0.999999948703
---
header: 
  seq: 112
  stamp: 
    secs: 1333389290
    nsecs:   3671472
  frame_id: "map"
pose: 
  position: 
    x: 0.00289916992188
    y: 0.00152587890625
    z: 0.0
  orientation: 
    x: 0.0
    y: 0.0
    z: 0.000243412823108
    w: 0.999999970375
---
header: 
  seq: 113
  stamp: 
    secs: 1333389290
    nsecs: 104680472
  frame_id: "map"
pose: 
  position: 
    x: 0.00423049926758
    y: 0.00202178955078
    z: 0.0
  orientation: 
    x: 0.0
    y: 0.0
    z: 8.73354000559e-05
    w: 0.999999996186
---
header: 
  seq: 114
  stamp: 
    secs: 1333389290
    nsecs: 154679472
  frame_id: "map"
pose: 
  position: 
    x: 0.00271606445312
    y: 0.00129318237305
    z: 0.0
  orientation: 
    x: 0.0
    y: 0.0
    z: 0.000354738665755
    w: 0.99999993708
---
header: 
  seq: 115
  stamp: 
    secs: 1333389290
    nsecs: 254675472
  frame_id: "map"
pose: 
  position: 
    x: 0.0036735534668
    y: 0.000110626220703
    z: 0.0
  orientation: 
    x: 0.0
    y: 0.0
    z: 0.000426514003067
    w: 0.999999909043
---
header: 
  seq: 116
  stamp: 
    secs: 1333389290
    nsecs: 304674472
  frame_id: "map"
pose: 
  position: 
    x: 0.00193023681641
    y: 0.00153350830078
    z: 0.0
  orientation: 
    x: 0.0
    y: 0.0
    z: 0.000340037274141
    w: 0.999999942187
---
header: 
  seq: 117
  stamp: 
    secs: 1333389290
    nsecs: 354671472
  frame_id: "map"
pose: 
  position: 
    x: 0.00300216674805
    y: 0.00216674804688
    z: 0.0
  orientation: 
    x: 0.0
    y: 0.0
    z: -8.19285704885e-05
    w: 0.999999996644
---
header: 
  seq: 118
  stamp: 
    secs: 1333389290
    nsecs: 454668472
  frame_id: "map"
pose: 
  position: 
    x: 0.0026741027832
    y: 0.00155639648438
    z: 0.0
  orientation: 
    x: 0.0
    y: 0.0
    z: 0.000216722413947
    w: 0.999999976516
---
header: 
  seq: 119
  stamp: 
    secs: 1333389290
    nsecs: 505679472
  frame_id: "map"
pose: 
  position: 
    x: 0.00187301635742
    y: 0.00258255004883
    z: 0.0
  orientation: 
    x: 0.0
    y: 0.0
    z: 0.000142127944377
    w: 0.9999999899
---
header: 
  seq: 120
  stamp: 
    secs: 1333389290
    nsecs: 605676472
  frame_id: "map"
pose: 
  position: 
    x: 0.00165939331055
    y: 0.00119781494141
    z: 0.0
  orientation: 
    x: 0.0
    y: 0.0
    z: 0.000214851634321
    w: 0.999999976919
---
header: 
  seq: 121
  stamp: 
    secs: 1333389290
    nsecs: 655675472
  frame_id: "map"
pose: 
  position: 
    x: 0.00320434570312
    y: 0.00131225585938
    z: 0.0
  orientation: 
    x: 0.0
    y: 0.0
    z: 0.000569690046285
    w: 0.999999837727
---
header: 
  seq: 122
  stamp: 
    secs: 1333389290
    nsecs: 705671472
  frame_id: "map"
pose: 
  position: 
    x: 0.00153732299805
    y: 0.00151443481445
    z: 0.0
  orientation: 
    x: 0.0
    y: 0.0
    z: 0.000393732877287
    w: 0.999999922487
---
header: 
  seq: 123
  stamp: 
    secs: 1333389290
    nsecs: 805667472
  frame_id: "map"
pose: 
  position: 
    x: 0.00331878662109
    y: 0.00196075439453
    z: 0.0
  orientation: 
    x: 0.0
    y: 0.0
    z: 0.0001217996393
    w: 0.999999992582
---
header: 
  seq: 124
  stamp: 
    secs: 1333389290
    nsecs: 855665472
  frame_id: "map"
pose: 
  position: 
    x: 0.00339508056641
    y: 0.00172805786133
    z: 0.0
  orientation: 
    x: 0.0
    y: 0.0
    z: -4.92652215854e-05
    w: 0.999999998786
---
header: 
  seq: 125
  stamp: 
    secs: 1333389290
    nsecs: 956678472
  frame_id: "map"
pose: 
  position: 
    x: 0.00322723388672
    y: 0.00217437744141
    z: 0.0
  orientation: 
    x: 0.0
    y: 0.0
    z: 9.83338030217e-05
    w: 0.999999995165
---
header: 
  seq: 126
  stamp: 
    secs: 1333389291
    nsecs:   6673472
  frame_id: "map"
pose: 
  position: 
    x: 0.00312423706055
    y: 0.00222015380859
    z: 0.0
  orientation: 
    x: 0.0
    y: 0.0
    z: 0.000260687721269
    w: 0.999999966021
---
header: 
  seq: 127
  stamp: 
    secs: 1333389291
    nsecs:  56671472
  frame_id: "map"
pose: 
  position: 
    x: 0.00303268432617
    y: 0.00232696533203
    z: 0.0
  orientation: 
    x: 0.0
    y: 0.0
    z: 0.00032422755044
    w: 0.999999947438
---
header: 
  seq: 128
  stamp: 
    secs: 1333389291
    nsecs: 156668472
  frame_id: "map"
pose: 
  position: 
    x: 0.00244140625
    y: 0.00358963012695
    z: 0.0
  orientation: 
    x: 0.0
    y: 0.0
    z: 0.000113728179468
    w: 0.999999993533
---
header: 
  seq: 129
  stamp: 
    secs: 1333389291
    nsecs: 206666472
  frame_id: "map"
pose: 
  position: 
    x: 0.00273513793945
    y: 0.00136566162109
    z: 0.0
  orientation: 
    x: 0.0
    y: 0.0
    z: 0.000557509280266
    w: 0.999999844592
---
header: 
  seq: 130
  stamp: 
    secs: 1333389291
    nsecs: 307678472
  frame_id: "map"
pose: 
  position: 
    x: 0.0020637512207
    y: 0.00214767456055
    z: 0.0
  orientation: 
    x: 0.0
    y: 0.0
    z: 0.000225761757876
    w: 0.999999974516
---
header: 
  seq: 131
  stamp: 
    secs: 1333389291
    nsecs: 357676472
  frame_id: "map"
pose: 
  position: 
    x: 0.00358200073242
    y: 0.00170135498047
    z: 0.0
  orientation: 
    x: 0.0
    y: 0.0
    z: 0.000301751594602
    w: 0.999999954473
---
header: 
  seq: 132
  stamp: 
    secs: 1333389291
    nsecs: 457671472
  frame_id: "map"
pose: 
  position: 
    x: 0.00361251831055
    y: 0.0014762878418
    z: 0.0
  orientation: 
    x: 0.0
    y: 0.0
    z: 0.000207172064957
    w: 0.99999997854
---
header: 
  seq: 133
  stamp: 
    secs: 1333389291
    nsecs: 507669472
  frame_id: "map"
pose: 
  position: 
    x: 0.00239944458008
    y: 0.00247955322266
    z: 0.0
  orientation: 
    x: 0.0
    y: 0.0
    z: 0.000351319373343
    w: 0.999999938287
---
header: 
  seq: 134
  stamp: 
    secs: 1333389291
    nsecs: 557666472
  frame_id: "map"
pose: 
  position: 
    x: 0.00225830078125
    y: 0.00162506103516
    z: 0.0
  orientation: 
    x: 0.0
    y: 0.0
    z: 0.000178184999607
    w: 0.999999984125
---
header: 
  seq: 135
  stamp: 
    secs: 1333389291
    nsecs: 657662472
  frame_id: "map"
pose: 
  position: 
    x: 0.00234985351562
    y: 0.00261306762695
    z: 0.0
  orientation: 
    x: 0.0
    y: 0.0
    z: 5.4001680811e-05
    w: 0.999999998542
---
header: 
  seq: 136
  stamp: 
    secs: 1333389291
    nsecs: 708674472
  frame_id: "map"
pose: 
  position: 
    x: 0.00283050537109
    y: 0.00199508666992
    z: 0.0
  orientation: 
    x: 0.0
    y: 0.0
    z: 0.000158380527202
    w: 0.999999987458
---
header: 
  seq: 137
  stamp: 
    secs: 1333389291
    nsecs: 808671472
  frame_id: "map"
pose: 
  position: 
    x: 0.00244140625
    y: 0.00193405151367
    z: 0.0
  orientation: 
    x: 0.0
    y: 0.0
    z: 7.9475466835e-05
    w: 0.999999996842
---
header: 
  seq: 138
  stamp: 
    secs: 1333389291
    nsecs: 858669472
  frame_id: "map"
pose: 
  position: 
    x: 0.00205612182617
    y: 0.00265502929688
    z: 0.0
  orientation: 
    x: 0.0
    y: 0.0
    z: 0.000172524610261
    w: 0.999999985118
---
header: 
  seq: 139
  stamp: 
    secs: 1333389291
    nsecs: 908665472
  frame_id: "map"
pose: 
  position: 
    x: 0.0020751953125
    y: 0.000999450683594
    z: 0.0
  orientation: 
    x: 0.0
    y: 0.0
    z: 0.000375036374256
    w: 0.999999929674
---
header: 
  seq: 140
  stamp: 
    secs: 1333389292
    nsecs:   8659472
  frame_id: "map"
pose: 
  position: 
    x: 0.00274658203125
    y: 0.00124359130859
    z: 0.0
  orientation: 
    x: 0.0
    y: 0.0
    z: 0.000365216451494
    w: 0.999999933308
---
header: 
  seq: 141
  stamp: 
    secs: 1333389292
    nsecs:  58658472
  frame_id: "map"
pose: 
  position: 
    x: 0.00232696533203
    y: 0.00294876098633
    z: 0.0
  orientation: 
    x: 0.0
    y: 0.0
    z: 6.19736965349e-05
    w: 0.99999999808
---
header: 
  seq: 142
  stamp: 
    secs: 1333389292
    nsecs: 159675472
  frame_id: "map"
pose: 
  position: 
    x: 0.00222015380859
    y: 0.00143432617188
    z: 0.0
  orientation: 
    x: 0.0
    y: 0.0
    z: 0.000263443708399
    w: 0.999999965299
---
header: 
  seq: 143
  stamp: 
    secs: 1333389292
    nsecs: 209673472
  frame_id: "map"
pose: 
  position: 
    x: 0.00228881835938
    y: 0.00175094604492
    z: 0.0
  orientation: 
    x: 0.0
    y: 0.0
    z: 0.000331574142656
    w: 0.999999945029
---
header: 
  seq: 144
  stamp: 
    secs: 1333389292
    nsecs: 259670472
  frame_id: "map"
pose: 
  position: 
    x: 0.00191116333008
    y: 0.0027961730957
    z: 0.0
  orientation: 
    x: 0.0
    y: 0.0
    z: 3.6984627505e-05
    w: 0.999999999316
---
header: 
  seq: 145
  stamp: 
    secs: 1333389292
    nsecs: 359662472
  frame_id: "map"
pose: 
  position: 
    x: 0.00325775146484
    y: 0.00220489501953
    z: 0.0
  orientation: 
    x: 0.0
    y: 0.0
    z: 0.000297928311878
    w: 0.999999955619
---
header: 
  seq: 146
  stamp: 
    secs: 1333389292
    nsecs: 409660472
  frame_id: "map"
pose: 
  position: 
    x: 0.00295257568359
    y: 0.00214767456055
    z: 0.0
  orientation: 
    x: 0.0
    y: 0.0
    z: 7.44142598019e-05
    w: 0.999999997231
---
header: 
  seq: 147
  stamp: 
    secs: 1333389292
    nsecs: 510676472
  frame_id: "map"
pose: 
  position: 
    x: 0.00293731689453
    y: 0.0015754699707
    z: 0.0
  orientation: 
    x: 0.0
    y: 0.0
    z: 0.000375372232436
    w: 0.999999929548
---
header: 
  seq: 148
  stamp: 
    secs: 1333389292
    nsecs: 560670472
  frame_id: "map"
pose: 
  position: 
    x: 0.00204467773438
    y: 0.00205612182617
    z: 0.0
  orientation: 
    x: 0.0
    y: 0.0
    z: 0.000216051235977
    w: 0.999999976661
---
header: 
  seq: 149
  stamp: 
    secs: 1333389292
    nsecs: 610667472
  frame_id: "map"
pose: 
  position: 
    x: 0.0031623840332
    y: 0.00253295898438
    z: 0.0
  orientation: 
    x: 0.0
    y: 0.0
    z: 0.000155473010919
    w: 0.999999987914
---
header: 
  seq: 150
  stamp: 
    secs: 1333389292
    nsecs: 710664472
  frame_id: "map"
pose: 
  position: 
    x: 0.00199508666992
    y: 0.00203704833984
    z: 0.0
  orientation: 
    x: 0.0
    y: 0.0
    z: 0.000275449998453
    w: 0.999999962064
---
header: 
  seq: 151
  stamp: 
    secs: 1333389292
    nsecs: 760660472
  frame_id: "map"
pose: 
  position: 
    x: 0.00240325927734
    y: 0.00173187255859
    z: 0.0
  orientation: 
    x: 0.0
    y: 0.0
    z: 0.000285865327641
    w: 0.999999959141
---
header: 
  seq: 152
  stamp: 
    secs: 1333389292
    nsecs: 860655472
  frame_id: "map"
pose: 
  position: 
    x: 0.00220489501953
    y: 0.00162887573242
    z: 0.0
  orientation: 
    x: 0.0
    y: 0.0
    z: 0.000449331869618
    w: 0.99999989905
---
header: 
  seq: 153
  stamp: 
    secs: 1333389292
    nsecs: 911673472
  frame_id: "map"
pose: 
  position: 
    x: 0.00156784057617
    y: 0.00102996826172
    z: 0.0
  orientation: 
    x: 0.0
    y: 0.0
    z: 0.000344357097235
    w: 0.999999940709
---
header: 
  seq: 154
  stamp: 
    secs: 1333389292
    nsecs: 961667472
  frame_id: "map"
pose: 
  position: 
    x: 0.00230026245117
    y: 0.00128173828125
    z: 0.0
  orientation: 
    x: 0.0
    y: 0.0
    z: 0.000470315030667
    w: 0.999999889402
---
header: 
  seq: 155
  stamp: 
    secs: 1333389293
    nsecs:  61662472
  frame_id: "map"
pose: 
  position: 
    x: 0.00173187255859
    y: 0.0029411315918
    z: 0.0
  orientation: 
    x: 0.0
    y: 0.0
    z: 0.000215024656589
    w: 0.999999976882
---
header: 
  seq: 156
  stamp: 
    secs: 1333389293
    nsecs: 111663472
  frame_id: "map"
pose: 
  position: 
    x: 0.00102615356445
    y: 0.00198364257812
    z: 0.0
  orientation: 
    x: 0.0
    y: 0.0
    z: 0.000236702222146
    w: 0.999999971986
---
header: 
  seq: 157
  stamp: 
    secs: 1333389293
    nsecs: 211657472
  frame_id: "map"
pose: 
  position: 
    x: 0.00201416015625
    y: 0.00213623046875
    z: 0.0
  orientation: 
    x: 0.0
    y: 0.0
    z: 0.00027934752507
    w: 0.999999960982
---
header: 
  seq: 158
  stamp: 
    secs: 1333389293
    nsecs: 261656472
  frame_id: "map"
pose: 
  position: 
    x: 0.00125122070312
    y: 0.00286865234375
    z: 0.0
  orientation: 
    x: 0.0
    y: 0.0
    z: 0.000380260627866
    w: 0.999999927701
---
header: 
  seq: 159
  stamp: 
    secs: 1333389293
    nsecs: 312668472
  frame_id: "map"
pose: 
  position: 
    x: 0.00215911865234
    y: 0.0013313293457
    z: 0.0
  orientation: 
    x: 0.0
    y: 0.0
    z: 0.000386395045487
    w: 0.999999925349
---
header: 
  seq: 160
  stamp: 
    secs: 1333389293
    nsecs: 412664472
  frame_id: "map"
pose: 
  position: 
    x: 0.00186920166016
    y: 0.00181198120117
    z: 0.0
  orientation: 
    x: 0.0
    y: 0.0
    z: 0.000200777284151
    w: 0.999999979844
---
header: 
  seq: 161
  stamp: 
    secs: 1333389293
    nsecs: 462661472
  frame_id: "map"
pose: 
  position: 
    x: 0.00141143798828
    y: 0.00210571289062
    z: 0.0
  orientation: 
    x: 0.0
    y: 0.0
    z: 0.000221328837154
    w: 0.999999975507
---
header: 
  seq: 162
  stamp: 
    secs: 1333389293
    nsecs: 562656472
  frame_id: "map"
pose: 
  position: 
    x: 0.00138473510742
    y: 0.00288009643555
    z: 0.0
  orientation: 
    x: 0.0
    y: 0.0
    z: 0.000130865591554
    w: 0.999999991437
---
header: 
  seq: 163
  stamp: 
    secs: 1333389293
    nsecs: 612656472
  frame_id: "map"
pose: 
  position: 
    x: 0.00192260742188
    y: 0.00231170654297
    z: 0.0
  orientation: 
    x: 0.0
    y: 0.0
    z: 0.00030180683367
    w: 0.999999954456
---
header: 
  seq: 164
  stamp: 
    secs: 1333389293
    nsecs: 713664472
  frame_id: "map"
pose: 
  position: 
    x: 0.0020751953125
    y: 0.00156784057617
    z: 0.0
  orientation: 
    x: 0.0
    y: 0.0
    z: 0.000176266489685
    w: 0.999999984465
---
header: 
  seq: 165
  stamp: 
    secs: 1333389293
    nsecs: 763662472
  frame_id: "map"
pose: 
  position: 
    x: 0.00175094604492
    y: 0.00177764892578
    z: 0.0
  orientation: 
    x: 0.0
    y: 0.0
    z: 0.000590851496054
    w: 0.999999825447
---
header: 
  seq: 166
  stamp: 
    secs: 1333389293
    nsecs: 813663472
  frame_id: "map"
pose: 
  position: 
    x: 0.00251388549805
    y: 0.00151824951172
    z: 0.0
  orientation: 
    x: 0.0
    y: 0.0
    z: 0.000446386736894
    w: 0.999999900369
---
header: 
  seq: 167
  stamp: 
    secs: 1333389293
    nsecs: 913657472
  frame_id: "map"
pose: 
  position: 
    x: 0.00159454345703
    y: 0.00209808349609
    z: 0.0
  orientation: 
    x: 0.0
    y: 0.0
    z: 0.000435964161457
    w: 0.999999904968
---
header: 
  seq: 168
  stamp: 
    secs: 1333389293
    nsecs: 963657472
  frame_id: "map"
pose: 
  position: 
    x: 0.00159454345703
    y: 0.00101470947266
    z: 0.0
  orientation: 
    x: 0.0
    y: 0.0
    z: 0.000556383544279
    w: 0.999999845219
---
header: 
  seq: 169
  stamp: 
    secs: 1333389294
    nsecs:  63653472
  frame_id: "map"
pose: 
  position: 
    x: 0.00248336791992
    y: 0.00177764892578
    z: 0.0
  orientation: 
    x: 0.0
    y: 0.0
    z: 0.000158810259805
    w: 0.99999998739
---
header: 
  seq: 170
  stamp: 
    secs: 1333389294
    nsecs: 114663472
  frame_id: "map"
pose: 
  position: 
    x: 0.00281524658203
    y: 0.00117874145508
    z: 0.0
  orientation: 
    x: 0.0
    y: 0.0
    z: 0.000387301687946
    w: 0.999999924999
---
header: 
  seq: 171
  stamp: 
    secs: 1333389294
    nsecs: 164658472
  frame_id: "map"
pose: 
  position: 
    x: 0.00237274169922
    y: 0.00142288208008
    z: 0.0
  orientation: 
    x: 0.0
    y: 0.0
    z: 0.000267113992329
    w: 0.999999964325
---
header: 
  seq: 172
  stamp: 
    secs: 1333389294
    nsecs: 264654472
  frame_id: "map"
pose: 
  position: 
    x: 0.00221633911133
    y: 0.00249481201172
    z: 0.0
  orientation: 
    x: 0.0
    y: 0.0
    z: 0.000281796350372
    w: 0.999999960295
---
header: 
  seq: 173
  stamp: 
    secs: 1333389294
    nsecs: 314654472
  frame_id: "map"
pose: 
  position: 
    x: 0.00270843505859
    y: 0.001708984375
    z: 0.0
  orientation: 
    x: 0.0
    y: 0.0
    z: 0.000278243733239
    w: 0.99999996129
---
header: 
  seq: 174
  stamp: 
    secs: 1333389294
    nsecs: 414651472
  frame_id: "map"
pose: 
  position: 
    x: 0.00238800048828
    y: 0.00255584716797
    z: 0.0
  orientation: 
    x: 0.0
    y: 0.0
    z: 0.000452202933097
    w: 0.999999897756
---
header: 
  seq: 175
  stamp: 
    secs: 1333389294
    nsecs: 464649472
  frame_id: "map"
pose: 
  position: 
    x: 0.00364303588867
    y: 0.00182342529297
    z: 0.0
  orientation: 
    x: 0.0
    y: 0.0
    z: 0.000251903778072
    w: 0.999999968272
---
header: 
  seq: 176
  stamp: 
    secs: 1333389294
    nsecs: 565664472
  frame_id: "map"
pose: 
  position: 
    x: 0.00408172607422
    y: 0.00191497802734
    z: 0.0
  orientation: 
    x: 0.0
    y: 0.0
    z: 0.000241674203983
    w: 0.999999970797
---
header: 
  seq: 177
  stamp: 
    secs: 1333389294
    nsecs: 615658472
  frame_id: "map"
pose: 
  position: 
    x: 0.00200271606445
    y: 0.00271606445312
    z: 0.0
  orientation: 
    x: 0.0
    y: 0.0
    z: 0.000247299261199
    w: 0.999999969422
---
header: 
  seq: 178
  stamp: 
    secs: 1333389294
    nsecs: 715653472
  frame_id: "map"
pose: 
  position: 
    x: 0.00294876098633
    y: 0.0013542175293
    z: 0.0
  orientation: 
    x: 0.0
    y: 0.0
    z: 0.000598094914306
    w: 0.999999821141
---
header: 
  seq: 179
  stamp: 
    secs: 1333389294
    nsecs: 765653472
  frame_id: "map"
pose: 
  position: 
    x: 0.00330352783203
    y: 0.00289916992188
    z: 0.0
  orientation: 
    x: 0.0
    y: 0.0
    z: 0.000280724107093
    w: 0.999999960597
---
header: 
  seq: 180
  stamp: 
    secs: 1333389294
    nsecs: 865651472
  frame_id: "map"
pose: 
  position: 
    x: 0.00357818603516
    y: 0.00264358520508
    z: 0.0
  orientation: 
    x: 0.0
    y: 0.0
    z: 8.94902476545e-05
    w: 0.999999995996
---
header: 
  seq: 181
  stamp: 
    secs: 1333389294
    nsecs: 916660472
  frame_id: "map"
pose: 
  position: 
    x: 0.00319290161133
    y: 0.00117111206055
    z: 0.0
  orientation: 
    x: 0.0
    y: 0.0
    z: 0.000513580255916
    w: 0.999999868118
---
header: 
  seq: 182
  stamp: 
    secs: 1333389294
    nsecs: 966659472
  frame_id: "map"
pose: 
  position: 
    x: 0.00309371948242
    y: 0.00292205810547
    z: 0.0
  orientation: 
    x: 0.0
    y: 0.0
    z: 0.000272116911499
    w: 0.999999962976
---
header: 
  seq: 183
  stamp: 
    secs: 1333389295
    nsecs:  66654472
  frame_id: "map"
pose: 
  position: 
    x: 0.00281524658203
    y: 0.00150680541992
    z: 0.0
  orientation: 
    x: 0.0
    y: 0.0
    z: 0.000155389904933
    w: 0.999999987927
---
header: 
  seq: 184
  stamp: 
    secs: 1333389295
    nsecs: 116655472
  frame_id: "map"
pose: 
  position: 
    x: 0.00227737426758
    y: 0.0016975402832
    z: 0.0
  orientation: 
    x: 0.0
    y: 0.0
    z: 0.000323782116338
    w: 0.999999947583
---
header: 
  seq: 185
  stamp: 
    secs: 1333389295
    nsecs: 216648472
  frame_id: "map"
pose: 
  position: 
    x: 0.00234222412109
    y: 0.000862121582031
    z: 0.0
  orientation: 
    x: 0.0
    y: 0.0
    z: 0.000250359587084
    w: 0.99999996866
---
header: 
  seq: 186
  stamp: 
    secs: 1333389295
    nsecs: 266649472
  frame_id: "map"
pose: 
  position: 
    x: 0.00289154052734
    y: 0.000518798828125
    z: 0.0
  orientation: 
    x: 0.0
    y: 0.0
    z: 0.000574564878881
    w: 0.999999834938
---
header: 
  seq: 187
  stamp: 
    secs: 1333389295
    nsecs: 317659472
  frame_id: "map"
pose: 
  position: 
    x: 0.00305938720703
    y: 0.00235748291016
    z: 0.0
  orientation: 
    x: 0.0
    y: 0.0
    z: 0.000286752470564
    w: 0.999999958887
---
header: 
  seq: 188
  stamp: 
    secs: 1333389295
    nsecs: 417658472
  frame_id: "map"
pose: 
  position: 
    x: 0.0023307800293
    y: 0.00107574462891
    z: 0.0
  orientation: 
    x: 0.0
    y: 0.0
    z: 0.000306807977456
    w: 0.999999952934
---
header: 
  seq: 189
  stamp: 
    secs: 1333389295
    nsecs: 467652472
  frame_id: "map"
pose: 
  position: 
    x: 0.00235748291016
    y: 0.00131225585938
    z: 0.0
  orientation: 
    x: 0.0
    y: 0.0
    z: 0.000402173947877
    w: 0.999999919128
---
header: 
  seq: 190
  stamp: 
    secs: 1333389295
    nsecs: 567649472
  frame_id: "map"
pose: 
  position: 
    x: 0.00259399414062
    y: 0.00194549560547
    z: 0.0
  orientation: 
    x: 0.0
    y: 0.0
    z: 0.000446916746698
    w: 0.999999900133
---
header: 
  seq: 191
  stamp: 
    secs: 1333389295
    nsecs: 617646472
  frame_id: "map"
pose: 
  position: 
    x: 0.00180816650391
    y: 0.00173187255859
    z: 0.0
  orientation: 
    x: 0.0
    y: 0.0
    z: 0.000198782944208
    w: 0.999999980243
---
header: 
  seq: 192
  stamp: 
    secs: 1333389295
    nsecs: 667647472
  frame_id: "map"
pose: 
  position: 
    x: 0.00239944458008
    y: 0.00124359130859
    z: 0.0
  orientation: 
    x: 0.0
    y: 0.0
    z: 0.000502995543392
    w: 0.999999873498
---
header: 
  seq: 193
  stamp: 
    secs: 1333389295
    nsecs: 768653472
  frame_id: "map"
pose: 
  position: 
    x: 0.00266265869141
    y: 0.00160980224609
    z: 0.0
  orientation: 
    x: 0.0
    y: 0.0
    z: 0.000341910367456
    w: 0.999999941549
---
header: 
  seq: 194
  stamp: 
    secs: 1333389295
    nsecs: 818653472
  frame_id: "map"
pose: 
  position: 
    x: 0.0025749206543
    y: 0.00204467773438
    z: 0.0
  orientation: 
    x: 0.0
    y: 0.0
    z: 0.000216744343683
    w: 0.999999976511
---
header: 
  seq: 195
  stamp: 
    secs: 1333389295
    nsecs: 918647472
  frame_id: "map"
pose: 
  position: 
    x: 0.00330352783203
    y: 0.0021858215332
    z: 0.0
  orientation: 
    x: 0.0
    y: 0.0
    z: 0.000367666091636
    w: 0.999999932411
---
header: 
  seq: 196
  stamp: 
    secs: 1333389295
    nsecs: 968646472
  frame_id: "map"
pose: 
  position: 
    x: 0.00349807739258
    y: 0.00209808349609
    z: 0.0
  orientation: 
    x: 0.0
    y: 0.0
    z: 0.000175273496109
    w: 0.99999998464
---
header: 
  seq: 197
  stamp: 
    secs: 1333389296
    nsecs:  18644472
  frame_id: "map"
pose: 
  position: 
    x: 0.00139617919922
    y: 0.0023193359375
    z: 0.0
  orientation: 
    x: 0.0
    y: 0.0
    z: 0.000152495994689
    w: 0.999999988372
---
header: 
  seq: 198
  stamp: 
    secs: 1333389296
    nsecs: 119654472
  frame_id: "map"
pose: 
  position: 
    x: 0.00241851806641
    y: 0.00167846679688
    z: 0.0
  orientation: 
    x: 0.0
    y: 0.0
    z: 0.000246729757462
    w: 0.999999969562
---
header: 
  seq: 199
  stamp: 
    secs: 1333389296
    nsecs: 169656472
  frame_id: "map"
pose: 
  position: 
    x: 0.00310516357422
    y: 0.00193023681641
    z: 0.0
  orientation: 
    x: 0.0
    y: 0.0
    z: 0.000174767496921
    w: 0.999999984728
---
header: 
  seq: 200
  stamp: 
    secs: 1333389296
    nsecs: 269651472
  frame_id: "map"
pose: 
  position: 
    x: 0.00384521484375
    y: 0.000232696533203
    z: 0.0
  orientation: 
    x: 0.0
    y: 0.0
    z: 0.000268022672091
    w: 0.999999964082
---
header: 
  seq: 201
  stamp: 
    secs: 1333389296
    nsecs: 319648472
  frame_id: "map"
pose: 
  position: 
    x: 0.00368118286133
    y: 0.00104522705078
    z: 0.0
  orientation: 
    x: 0.0
    y: 0.0
    z: 0.000147340120215
    w: 0.999999989145
---
header: 
  seq: 202
  stamp: 
    secs: 1333389296
    nsecs: 369645472
  frame_id: "map"
pose: 
  position: 
    x: 0.00234985351562
    y: 0.00244140625
    z: 0.0
  orientation: 
    x: 0.0
    y: 0.0
    z: 0.000236126330117
    w: 0.999999972122
---
header: 
  seq: 203
  stamp: 
    secs: 1333389296
    nsecs: 469641472
  frame_id: "map"
pose: 
  position: 
    x: 0.00247955322266
    y: 0.000896453857422
    z: 0.0
  orientation: 
    x: 0.0
    y: 0.0
    z: 0.00036890090887
    w: 0.999999931956
---
header: 
  seq: 204
  stamp: 
    secs: 1333389296
    nsecs: 520653472
  frame_id: "map"
pose: 
  position: 
    x: 0.00354766845703
    y: 0.00140380859375
    z: 0.0
  orientation: 
    x: 0.0
    y: 0.0
    z: 0.000116019756855
    w: 0.99999999327
---
header: 
  seq: 205
  stamp: 
    secs: 1333389296
    nsecs: 620652472
  frame_id: "map"
pose: 
  position: 
    x: 0.00278854370117
    y: 0.00236129760742
    z: 0.0
  orientation: 
    x: 0.0
    y: 0.0
    z: 0.000284111821927
    w: 0.99999995964
---
header: 
  seq: 206
  stamp: 
    secs: 1333389296
    nsecs: 670649472
  frame_id: "map"
pose: 
  position: 
    x: 0.00384521484375
    y: 0.00149536132812
    z: 0.0
  orientation: 
    x: 0.0
    y: 0.0
    z: 0.000302566385402
    w: 0.999999954227
---
header: 
  seq: 207
  stamp: 
    secs: 1333389296
    nsecs: 720654472
  frame_id: "map"
pose: 
  position: 
    x: 0.00292205810547
    y: 0.00112915039062
    z: 0.0
  orientation: 
    x: 0.0
    y: 0.0
    z: 0.000225413923455
    w: 0.999999974594
---
header: 
  seq: 208
  stamp: 
    secs: 1333389296
    nsecs: 820642472
  frame_id: "map"
pose: 
  position: 
    x: 0.0027961730957
    y: 0.00212478637695
    z: 0.0
  orientation: 
    x: 0.0
    y: 0.0
    z: 0.00020007838478
    w: 0.999999979984
---
header: 
  seq: 209
  stamp: 
    secs: 1333389296
    nsecs: 870642472
  frame_id: "map"
pose: 
  position: 
    x: 0.0028076171875
    y: 0.00202178955078
    z: 0.0
  orientation: 
    x: 0.0
    y: 0.0
    z: 0.000365601931703
    w: 0.999999933168
---
header: 
  seq: 210
  stamp: 
    secs: 1333389296
    nsecs: 971649472
  frame_id: "map"
pose: 
  position: 
    x: 0.00290679931641
    y: 0.00203323364258
    z: 0.0
  orientation: 
    x: 0.0
    y: 0.0
    z: 0.000272518748071
    w: 0.999999962867
---
header: 
  seq: 211
  stamp: 
    secs: 1333389297
    nsecs:  21648472
  frame_id: "map"
pose: 
  position: 
    x: 0.00205230712891
    y: 0.00128173828125
    z: 0.0
  orientation: 
    x: 0.0
    y: 0.0
    z: 0.000419515958556
    w: 0.999999912003
---
header: 
  seq: 212
  stamp: 
    secs: 1333389297
    nsecs: 121644472
  frame_id: "map"
pose: 
  position: 
    x: 0.00208282470703
    y: 0.0014533996582
    z: 0.0
  orientation: 
    x: 0.0
    y: 0.0
    z: 0.000636615863841
    w: 0.99999979736
---
header: 
  seq: 213
  stamp: 
    secs: 1333389297
    nsecs: 171644472
  frame_id: "map"
pose: 
  position: 
    x: 0.00288009643555
    y: 0.00225067138672
    z: 0.0
  orientation: 
    x: 0.0
    y: 0.0
    z: 0.000392656297578
    w: 0.999999922911
---
header: 
  seq: 214
  stamp: 
    secs: 1333389297
    nsecs: 221641472
  frame_id: "map"
pose: 
  position: 
    x: 0.00266265869141
    y: 0.00048828125
    z: 0.0
  orientation: 
    x: 0.0
    y: 0.0
    z: 0.000287591126508
    w: 0.999999958646
---
header: 
  seq: 215
  stamp: 
    secs: 1333389297
    nsecs: 321633472
  frame_id: "map"
pose: 
  position: 
    x: 0.00194549560547
    y: 0.00309371948242
    z: 0.0
  orientation: 
    x: 0.0
    y: 0.0
    z: 0.000126866972665
    w: 0.999999991952
---
header: 
  seq: 216
  stamp: 
    secs: 1333389297
    nsecs: 372652472
  frame_id: "map"
pose: 
  position: 
    x: 0.00307464599609
    y: 0.0014762878418
    z: 0.0
  orientation: 
    x: 0.0
    y: 0.0
    z: 0.000151130486636
    w: 0.99999998858
---
header: 
  seq: 217
  stamp: 
    secs: 1333389297
    nsecs: 472648472
  frame_id: "map"
pose: 
  position: 
    x: 0.00186920166016
    y: 0.00251388549805
    z: 0.0
  orientation: 
    x: 0.0
    y: 0.0
    z: 0.000184557705186
    w: 0.999999982969
---
header: 
  seq: 218
  stamp: 
    secs: 1333389297
    nsecs: 522646472
  frame_id: "map"
pose: 
  position: 
    x: 0.00228881835938
    y: 0.00104904174805
    z: 0.0
  orientation: 
    x: 0.0
    y: 0.0
    z: 0.000407185336033
    w: 0.9999999171
---
header: 
  seq: 219
  stamp: 
    secs: 1333389297
    nsecs: 572643472
  frame_id: "map"
pose: 
  position: 
    x: 0.0029411315918
    y: 0.000804901123047
    z: 0.0
  orientation: 
    x: 0.0
    y: 0.0
    z: 0.000236458550332
    w: 0.999999972044
---
header: 
  seq: 220
  stamp: 
    secs: 1333389297
    nsecs: 672636472
  frame_id: "map"
pose: 
  position: 
    x: 0.00164794921875
    y: 0.00214767456055
    z: 0.0
  orientation: 
    x: 0.0
    y: 0.0
    z: 0.00014736212271
    w: 0.999999989142
---
header: 
  seq: 221
  stamp: 
    secs: 1333389297
    nsecs: 722634472
  frame_id: "map"
pose: 
  position: 
    x: 0.00238037109375
    y: 0.00126266479492
    z: 0.0
  orientation: 
    x: 0.0
    y: 0.0
    z: 0.000440596705017
    w: 0.999999902937
---
header: 
  seq: 222
  stamp: 
    secs: 1333389297
    nsecs: 823645472
  frame_id: "map"
pose: 
  position: 
    x: 0.00188064575195
    y: 0.00190353393555
    z: 0.0
  orientation: 
    x: 0.0
    y: 0.0
    z: 0.000170129059459
    w: 0.999999985528
---
header: 
  seq: 223
  stamp: 
    secs: 1333389297
    nsecs: 873645472
  frame_id: "map"
pose: 
  position: 
    x: 0.00180053710938
    y: 0.0030403137207
    z: 0.0
  orientation: 
    x: 0.0
    y: 0.0
    z: 0.000157805202689
    w: 0.999999987549
---
header: 
  seq: 224
  stamp: 
    secs: 1333389297
    nsecs: 923640472
  frame_id: "map"
pose: 
  position: 
    x: 0.00229644775391
    y: 0.00188446044922
    z: 0.0
  orientation: 
    x: 0.0
    y: 0.0
    z: 0.000335213692867
    w: 0.999999943816
---
header: 
  seq: 225
  stamp: 
    secs: 1333389298
    nsecs:  23640472
  frame_id: "map"
pose: 
  position: 
    x: 0.000984191894531
    y: 0.00105667114258
    z: 0.0
  orientation: 
    x: 0.0
    y: 0.0
    z: 0.000415422446951
    w: 0.999999913712
---
header: 
  seq: 226
  stamp: 
    secs: 1333389298
    nsecs:  73637472
  frame_id: "map"
pose: 
  position: 
    x: 0.00185394287109
    y: 0.00294876098633
    z: 0.0
  orientation: 
    x: 0.0
    y: 0.0
    z: 7.42226474586e-05
    w: 0.999999997245
---
header: 
  seq: 227
  stamp: 
    secs: 1333389298
    nsecs: 174647472
  frame_id: "map"
pose: 
  position: 
    x: 0.00180053710938
    y: 0.00198364257812
    z: 0.0
  orientation: 
    x: 0.0
    y: 0.0
    z: 0.000415254692487
    w: 0.999999913782
---
header: 
  seq: 228
  stamp: 
    secs: 1333389298
    nsecs: 224646472
  frame_id: "map"
pose: 
  position: 
    x: 0.00116729736328
    y: 0.00282669067383
    z: 0.0
  orientation: 
    x: 0.0
    y: 0.0
    z: 0.000258787997904
    w: 0.999999966514
---
header: 
  seq: 229
  stamp: 
    secs: 1333389298
    nsecs: 274644472
  frame_id: "map"
pose: 
  position: 
    x: 0.00188064575195
    y: 0.0023307800293
    z: 0.0
  orientation: 
    x: 0.0
    y: 0.0
    z: 0.00019997032226
    w: 0.999999980006
---
header: 
  seq: 230
  stamp: 
    secs: 1333389298
    nsecs: 374639472
  frame_id: "map"
pose: 
  position: 
    x: 0.00228118896484
    y: 0.0023078918457
    z: 0.0
  orientation: 
    x: 0.0
    y: 0.0
    z: 0.000339269718864
    w: 0.999999942448
---
header: 
  seq: 231
  stamp: 
    secs: 1333389298
    nsecs: 424635472
  frame_id: "map"
pose: 
  position: 
    x: 0.00247955322266
    y: 0.00188064575195
    z: 0.0
  orientation: 
    x: 0.0
    y: 0.0
    z: 0.000246512875724
    w: 0.999999969616
---
header: 
  seq: 232
  stamp: 
    secs: 1333389298
    nsecs: 524630472
  frame_id: "map"
pose: 
  position: 
    x: 0.00248336791992
    y: 0.00154876708984
    z: 0.0
  orientation: 
    x: 0.0
    y: 0.0
    z: 0.00037394946268
    w: 0.999999930081
---
header: 
  seq: 233
  stamp: 
    secs: 1333389298
    nsecs: 575641472
  frame_id: "map"
pose: 
  position: 
    x: 0.00249099731445
    y: 0.0020751953125
    z: 0.0
  orientation: 
    x: 0.0
    y: 0.0
    z: 0.000197027313878
    w: 0.99999998059
---
header: 
  seq: 234
  stamp: 
    secs: 1333389298
    nsecs: 675640472
  frame_id: "map"
pose: 
  position: 
    x: 0.00330352783203
    y: 0.00186920166016
    z: 0.0
  orientation: 
    x: 0.0
    y: 0.0
    z: 0.00019045441762
    w: 0.999999981864
---
header: 
  seq: 235
  stamp: 
    secs: 1333389298
    nsecs: 725637472
  frame_id: "map"
pose: 
  position: 
    x: 0.00200271606445
    y: 0.0024299621582
    z: 0.0
  orientation: 
    x: 0.0
    y: 0.0
    z: 0.000377640555717
    w: 0.999999928694
---
header: 
  seq: 236
  stamp: 
    secs: 1333389298
    nsecs: 775635472
  frame_id: "map"
pose: 
  position: 
    x: 0.0035285949707
    y: 0.00214385986328
    z: 0.0
  orientation: 
    x: 0.0
    y: 0.0
    z: 3.75406016158e-05
    w: 0.999999999295
---
header: 
  seq: 237
  stamp: 
    secs: 1333389298
    nsecs: 875634472
  frame_id: "map"
pose: 
  position: 
    x: 0.0034065246582
    y: 0.000999450683594
    z: 0.0
  orientation: 
    x: 0.0
    y: 0.0
    z: 0.00050256073222
    w: 0.999999873716
---
header: 
  seq: 238
  stamp: 
    secs: 1333389298
    nsecs: 925628472
  frame_id: "map"
pose: 
  position: 
    x: 0.0029182434082
    y: 0.00173950195312
    z: 0.0
  orientation: 
    x: 0.0
    y: 0.0
    z: 6.46748666899e-05
    w: 0.999999997909
---
header: 
  seq: 239
  stamp: 
    secs: 1333389299
    nsecs:  26639472
  frame_id: "map"
pose: 
  position: 
    x: 0.00254440307617
    y: 0.00239944458008
    z: 0.0
  orientation: 
    x: 0.0
    y: 0.0
    z: 0.000257134463831
    w: 0.999999966941
---
header: 
  seq: 240
  stamp: 
    secs: 1333389299
    nsecs:  76638472
  frame_id: "map"
pose: 
  position: 
    x: 0.00391387939453
    y: 0.0015754699707
    z: 0.0
  orientation: 
    x: 0.0
    y: 0.0
    z: 0.000208035299102
    w: 0.999999978361
---
header: 
  seq: 241
  stamp: 
    secs: 1333389299
    nsecs: 126640472
  frame_id: "map"
pose: 
  position: 
    x: 0.0025749206543
    y: 0.0020866394043
    z: 0.0
  orientation: 
    x: 0.0
    y: 0.0
    z: 0.000159054411836
    w: 0.999999987351
---
header: 
  seq: 242
  stamp: 
    secs: 1333389299
    nsecs: 226635472
  frame_id: "map"
pose: 
  position: 
    x: 0.00308990478516
    y: 0.0018310546875
    z: 0.0
  orientation: 
    x: 0.0
    y: 0.0
    z: 0.000425104853932
    w: 0.999999909643
---
header: 
  seq: 243
  stamp: 
    secs: 1333389299
    nsecs: 276633472
  frame_id: "map"
pose: 
  position: 
    x: 0.00322341918945
    y: 0.00241088867188
    z: 0.0
  orientation: 
    x: 0.0
    y: 0.0
    z: 0.000132028318674
    w: 0.999999991284
---
header: 
  seq: 244
  stamp: 
    secs: 1333389299
    nsecs: 377644472
  frame_id: "map"
pose: 
  position: 
    x: 0.0023078918457
    y: 0.00233840942383
    z: 0.0
  orientation: 
    x: 0.0
    y: 0.0
    z: 9.31917819359e-05
    w: 0.999999995658
---
header: 
  seq: 245
  stamp: 
    secs: 1333389299
    nsecs: 427656472
  frame_id: "map"
pose: 
  position: 
    x: 0.00299835205078
    y: 0.00111770629883
    z: 0.0
  orientation: 
    x: 0.0
    y: 0.0
    z: 0.000339383078278
    w: 0.99999994241
---
header: 
  seq: 246
  stamp: 
    secs: 1333389299
    nsecs: 477640472
  frame_id: "map"
pose: 
  position: 
    x: 0.00308227539062
    y: 0.00285720825195
    z: 0.0
  orientation: 
    x: 0.0
    y: 0.0
    z: 0.000112808491155
    w: 0.999999993637
---
header: 
  seq: 247
  stamp: 
    secs: 1333389299
    nsecs: 577635472
  frame_id: "map"
pose: 
  position: 
    x: 0.003173828125
    y: 0.00270462036133
    z: 0.0
  orientation: 
    x: 0.0
    y: 0.0
    z: -5.14109887946e-05
    w: 0.999999998678
---
header: 
  seq: 248
  stamp: 
    secs: 1333389299
    nsecs: 627633472
  frame_id: "map"
pose: 
  position: 
    x: 0.00362396240234
    y: 0.000659942626953
    z: 0.0
  orientation: 
    x: 0.0
    y: 0.0
    z: 0.00030763633064
    w: 0.99999995268
---
header: 
  seq: 249
  stamp: 
    secs: 1333389299
    nsecs: 727629472
  frame_id: "map"
pose: 
  position: 
    x: 0.00387573242188
    y: 0.00148391723633
    z: 0.0
  orientation: 
    x: 0.0
    y: 0.0
    z: 0.000509852346761
    w: 0.999999870025
---
header: 
  seq: 250
  stamp: 
    secs: 1333389299
    nsecs: 778639472
  frame_id: "map"
pose: 
  position: 
    x: 0.0028076171875
    y: 0.00247955322266
    z: 0.0
  orientation: 
    x: 0.0
    y: 0.0
    z: 5.73513643444e-05
    w: 0.999999998355
---
header: 
  seq: 251
  stamp: 
    secs: 1333389299
    nsecs: 878639472
  frame_id: "map"
pose: 
  position: 
    x: 0.00265502929688
    y: 0.000659942626953
    z: 0.0
  orientation: 
    x: 0.0
    y: 0.0
    z: 0.000217779392285
    w: 0.999999976286
---
header: 
  seq: 252
  stamp: 
    secs: 1333389299
    nsecs: 928635472
  frame_id: "map"
pose: 
  position: 
    x: 0.0011100769043
    y: 0.00204467773438
    z: 0.0
  orientation: 
    x: 0.0
    y: 0.0
    z: 0.000234489967295
    w: 0.999999972507
---
header: 
  seq: 253
  stamp: 
    secs: 1333389299
    nsecs: 978632472
  frame_id: "map"
pose: 
  position: 
    x: 0.00262451171875
    y: 0.00243377685547
    z: 0.0
  orientation: 
    x: 0.0
    y: 0.0
    z: 0.000117449264238
    w: 0.999999993103
---
header: 
  seq: 254
  stamp: 
    secs: 1333389300
    nsecs:  78628472
  frame_id: "map"
pose: 
  position: 
    x: 0.00296783447266
    y: 0.000896453857422
    z: 0.0
  orientation: 
    x: 0.0
    y: 0.0
    z: 0.000395399682631
    w: 0.99999992183
---
header: 
  seq: 255
  stamp: 
    secs: 1333389300
    nsecs: 128626472
  frame_id: "map"
pose: 
  position: 
    x: 0.00289154052734
    y: 0.00133514404297
    z: 0.0
  orientation: 
    x: 0.0
    y: 0.0
    z: 0.000255467600204
    w: 0.999999967368
---
header: 
  seq: 256
  stamp: 
    secs: 1333389300
    nsecs: 229637472
  frame_id: "map"
pose: 
  position: 
    x: 0.0029296875
    y: 0.0023193359375
    z: 0.0
  orientation: 
    x: 0.0
    y: 0.0
    z: 0.000334216071823
    w: 0.99999994415
---
header: 
  seq: 257
  stamp: 
    secs: 1333389300
    nsecs: 279635472
  frame_id: "map"
pose: 
  position: 
    x: 0.00202560424805
    y: 0.00211334228516
    z: 0.0
  orientation: 
    x: 0.0
    y: 0.0
    z: 0.000331411161214
    w: 0.999999945083
---
header: 
  seq: 258
  stamp: 
    secs: 1333389300
    nsecs: 329633472
  frame_id: "map"
pose: 
  position: 
    x: 0.00289154052734
    y: 0.0012092590332
    z: 0.0
  orientation: 
    x: 0.0
    y: 0.0
    z: 0.000236242207014
    w: 0.999999972095
---
header: 
  seq: 259
  stamp: 
    secs: 1333389300
    nsecs: 429628472
  frame_id: "map"
pose: 
  position: 
    x: 0.00277709960938
    y: 0.00286102294922
    z: 0.0
  orientation: 
    x: 0.0
    y: 0.0
    z: 0.000204267415427
    w: 0.999999979137
---
header: 
  seq: 260
  stamp: 
    secs: 1333389300
    nsecs: 479625472
  frame_id: "map"
pose: 
  position: 
    x: 0.0020751953125
    y: 0.0022087097168
    z: 0.0
  orientation: 
    x: 0.0
    y: 0.0
    z: 0.000215692443963
    w: 0.999999976738
---
header: 
  seq: 261
  stamp: 
    secs: 1333389300
    nsecs: 580635472
  frame_id: "map"
pose: 
  position: 
    x: 0.003662109375
    y: 0.00163650512695
    z: 0.0
  orientation: 
    x: 0.0
    y: 0.0
    z: 0.000383246389615
    w: 0.999999926561
---
header: 
  seq: 262
  stamp: 
    secs: 1333389300
    nsecs: 630636472
  frame_id: "map"
pose: 
  position: 
    x: 0.00246429443359
    y: 0.0030403137207
    z: 0.0
  orientation: 
    x: 0.0
    y: 0.0
    z: 6.27744374967e-05
    w: 0.99999999803
---
header: 
  seq: 263
  stamp: 
    secs: 1333389300
    nsecs: 680630472
  frame_id: "map"
pose: 
  position: 
    x: 0.00279998779297
    y: 0.0025749206543
    z: 0.0
  orientation: 
    x: 0.0
    y: 0.0
    z: 0.00028682517193
    w: 0.999999958866
---
header: 
  seq: 264
  stamp: 
    secs: 1333389300
    nsecs: 780626472
  frame_id: "map"
pose: 
  position: 
    x: 0.0028190612793
    y: 0.00285720825195
    z: 0.0
  orientation: 
    x: 0.0
    y: 0.0
    z: 0.000135975409229
    w: 0.999999990755
---
header: 
  seq: 265
  stamp: 
    secs: 1333389300
    nsecs: 830623472
  frame_id: "map"
pose: 
  position: 
    x: 0.00339889526367
    y: 0.001708984375
    z: 0.0
  orientation: 
    x: 0.0
    y: 0.0
    z: 2.22500202635e-05
    w: 0.999999999752
---
header: 
  seq: 266
  stamp: 
    secs: 1333389300
    nsecs: 930619472
  frame_id: "map"
pose: 
  position: 
    x: 0.00310516357422
    y: 0.0035285949707
    z: 0.0
  orientation: 
    x: 0.0
    y: 0.0
    z: 5.19174318236e-05
    w: 0.999999998652
---
header: 
  seq: 267
  stamp: 
    secs: 1333389300
    nsecs: 981632472
  frame_id: "map"
pose: 
  position: 
    x: 0.00266647338867
    y: 0.00249099731445
    z: 0.0
  orientation: 
    x: 0.0
    y: 0.0
    z: 0.000243220432243
    w: 0.999999970422
---
header: 
  seq: 268
  stamp: 
    secs: 1333389301
    nsecs:  31631472
  frame_id: "map"
pose: 
  position: 
    x: 0.0045280456543
    y: 0.00111770629883
    z: 0.0
  orientation: 
    x: 0.0
    y: 0.0
    z: 0.000404273963697
    w: 0.999999918281
---
header: 
  seq: 269
  stamp: 
    secs: 1333389301
    nsecs: 131642472
  frame_id: "map"
pose: 
  position: 
    x: 0.00298309326172
    y: 0.00191497802734
    z: 0.0
  orientation: 
    x: 0.0
    y: 0.0
    z: 0.000329280935564
    w: 0.999999945787
---
header: 
  seq: 270
  stamp: 
    secs: 1333389301
    nsecs: 181627472
  frame_id: "map"
pose: 
  position: 
    x: 0.00244903564453
    y: 0.00175857543945
    z: 0.0
  orientation: 
    x: 0.0
    y: 0.0
    z: 0.000293850836306
    w: 0.999999956826
---
header: 
  seq: 271
  stamp: 
    secs: 1333389301
    nsecs: 281623472
  frame_id: "map"
pose: 
  position: 
    x: 0.00179290771484
    y: 0.00106048583984
    z: 0.0
  orientation: 
    x: 0.0
    y: 0.0
    z: 0.000228501650612
    w: 0.999999973893
---
header: 
  seq: 272
  stamp: 
    secs: 1333389301
    nsecs: 331620472
  frame_id: "map"
pose: 
  position: 
    x: 0.00203323364258
    y: 0.00286102294922
    z: 0.0
  orientation: 
    x: 0.0
    y: 0.0
    z: 7.05547135436e-05
    w: 0.999999997511
---
header: 
  seq: 273
  stamp: 
    secs: 1333389301
    nsecs: 382634472
  frame_id: "map"
pose: 
  position: 
    x: 0.00209808349609
    y: 0.00273513793945
    z: 0.0
  orientation: 
    x: 0.0
    y: 0.0
    z: 8.27854963937e-05
    w: 0.999999996573
---
header: 
  seq: 274
  stamp: 
    secs: 1333389301
    nsecs: 482630472
  frame_id: "map"
pose: 
  position: 
    x: 0.00260162353516
    y: 0.00212860107422
    z: 0.0
  orientation: 
    x: 0.0
    y: 0.0
    z: 0.000351329676099
    w: 0.999999938284
---
header: 
  seq: 275
  stamp: 
    secs: 1333389301
    nsecs: 532647472
  frame_id: "map"
pose: 
  position: 
    x: 0.00272369384766
    y: 0.00211334228516
    z: 0.0
  orientation: 
    x: 0.0
    y: 0.0
    z: 0.000161818548098
    w: 0.999999986907
---
header: 
  seq: 276
  stamp: 
    secs: 1333389301
    nsecs: 632622472
  frame_id: "map"
pose: 
  position: 
    x: 0.00260543823242
    y: 0.00200271606445
    z: 0.0
  orientation: 
    x: 0.0
    y: 0.0
    z: 0.000288652921511
    w: 0.99999995834
---
header: 
  seq: 277
  stamp: 
    secs: 1333389301
    nsecs: 682619472
  frame_id: "map"
pose: 
  position: 
    x: 0.00270843505859
    y: 0.000659942626953
    z: 0.0
  orientation: 
    x: 0.0
    y: 0.0
    z: 0.0003985058469
    w: 0.999999920597
---
header: 
  seq: 278
  stamp: 
    secs: 1333389301
    nsecs: 732613472
  frame_id: "map"
pose: 
  position: 
    x: 0.00275421142578
    y: 0.00167846679688
    z: 0.0
  orientation: 
    x: 0.0
    y: 0.0
    z: 0.00016948605399
    w: 0.999999985637
---
header: 
  seq: 279
  stamp: 
    secs: 1333389301
    nsecs: 833630472
  frame_id: "map"
pose: 
  position: 
    x: 0.00358200073242
    y: 0.0025634765625
    z: 0.0
  orientation: 
    x: 0.0
    y: 0.0
    z: 0.000210732700257
    w: 0.999999977796
---
header: 
  seq: 280
  stamp: 
    secs: 1333389301
    nsecs: 883623472
  frame_id: "map"
pose: 
  position: 
    x: 0.00310134887695
    y: 0.000957489013672
    z: 0.0
  orientation: 
    x: 0.0
    y: 0.0
    z: 0.000373293491491
    w: 0.999999930326
---
header: 
  seq: 281
  stamp: 
    secs: 1333389301
    nsecs: 983624472
  frame_id: "map"
pose: 
  position: 
    x: 0.00167846679688
    y: 0.0019416809082
    z: 0.0
  orientation: 
    x: 0.0
    y: 0.0
    z: 0.000319697626776
    w: 0.999999948897
---
header: 
  seq: 282
  stamp: 
    secs: 1333389302
    nsecs:  33621472
  frame_id: "map"
pose: 
  position: 
    x: 0.00240325927734
    y: 0.00165557861328
    z: 0.0
  orientation: 
    x: 0.0
    y: 0.0
    z: 0.000200737659286
    w: 0.999999979852
---
header: 
  seq: 283
  stamp: 
    secs: 1333389302
    nsecs: 133617472
  frame_id: "map"
pose: 
  position: 
    x: 0.00254440307617
    y: 0.00159454345703
    z: 0.0
  orientation: 
    x: 0.0
    y: 0.0
    z: 8.81972808877e-05
    w: 0.999999996111
---
header: 
  seq: 284
  stamp: 
    secs: 1333389302
    nsecs: 184628472
  frame_id: "map"
pose: 
  position: 
    x: 0.00325775146484
    y: 0.00160980224609
    z: 0.0
  orientation: 
    x: 0.0
    y: 0.0
    z: 0.000246110806318
    w: 0.999999969715
---
header: 
  seq: 285
  stamp: 
    secs: 1333389302
    nsecs: 234628472
  frame_id: "map"
pose: 
  position: 
    x: 0.00234985351562
    y: 0.00215530395508
    z: 0.0
  orientation: 
    x: 0.0
    y: 0.0
    z: 0.000287819766191
    w: 0.99999995858
---
header: 
  seq: 286
  stamp: 
    secs: 1333389302
    nsecs: 334624472
  frame_id: "map"
pose: 
  position: 
    x: 0.00211715698242
    y: 0.00294876098633
    z: 0.0
  orientation: 
    x: 0.0
    y: 0.0
    z: 0.000277373907092
    w: 0.999999961532
---
header: 
  seq: 287
  stamp: 
    secs: 1333389302
    nsecs: 384622472
  frame_id: "map"
pose: 
  position: 
    x: 0.00254058837891
    y: 0.002197265625
    z: 0.0
  orientation: 
    x: 0.0
    y: 0.0
    z: 0.000223038614392
    w: 0.999999975127
---
header: 
  seq: 288
  stamp: 
    secs: 1333389302
    nsecs: 434622472
  frame_id: "map"
pose: 
  position: 
    x: 0.00241088867188
    y: 0.00153732299805
    z: 0.0
  orientation: 
    x: 0.0
    y: 0.0
    z: 0.000353885399707
    w: 0.999999937383
---
header: 
  seq: 289
  stamp: 
    secs: 1333389302
    nsecs: 534617472
  frame_id: "map"
pose: 
  position: 
    x: 0.00303268432617
    y: 0.00281524658203
    z: 0.0
  orientation: 
    x: 0.0
    y: 0.0
    z: 0.000136741873149
    w: 0.999999990651
---
header: 
  seq: 290
  stamp: 
    secs: 1333389302
    nsecs: 585627472
  frame_id: "map"
pose: 
  position: 
    x: 0.00282669067383
    y: 0.0025749206543
    z: 0.0
  orientation: 
    x: 0.0
    y: 0.0
    z: 6.87034407206e-05
    w: 0.99999999764
---
header: 
  seq: 291
  stamp: 
    secs: 1333389302
    nsecs: 685624472
  frame_id: "map"
pose: 
  position: 
    x: 0.00302124023438
    y: 0.00114059448242
    z: 0.0
  orientation: 
    x: 0.0
    y: 0.0
    z: 0.000374090470729
    w: 0.999999930028
---
header: 
  seq: 292
  stamp: 
    secs: 1333389302
    nsecs: 735622472
  frame_id: "map"
pose: 
  position: 
    x: 0.00206756591797
    y: 0.00101852416992
    z: 0.0
  orientation: 
    x: 0.0
    y: 0.0
    z: 0.000214925747223
    w: 0.999999976903
---
header: 
  seq: 293
  stamp: 
    secs: 1333389302
    nsecs: 835617472
  frame_id: "map"
pose: 
  position: 
    x: 0.00225830078125
    y: 0.00247955322266
    z: 0.0
  orientation: 
    x: 0.0
    y: 0.0
    z: 0.00011236835393
    w: 0.999999993687
---
header: 
  seq: 294
  stamp: 
    secs: 1333389302
    nsecs: 885616472
  frame_id: "map"
pose: 
  position: 
    x: 0.00215911865234
    y: 0.00315093994141
    z: 0.0
  orientation: 
    x: 0.0
    y: 0.0
    z: 0.000225425957888
    w: 0.999999974592
---
header: 
  seq: 295
  stamp: 
    secs: 1333389302
    nsecs: 935614472
  frame_id: "map"
pose: 
  position: 
    x: 0.00213623046875
    y: 0.00193405151367
    z: 0.0
  orientation: 
    x: 0.0
    y: 0.0
    z: 0.000193777958581
    w: 0.999999981225
---
header: 
  seq: 296
  stamp: 
    secs: 1333389303
    nsecs:  36626472
  frame_id: "map"
pose: 
  position: 
    x: 0.00351715087891
    y: 0.00209808349609
    z: 0.0
  orientation: 
    x: 0.0
    y: 0.0
    z: 0.000292035950621
    w: 0.999999957358
---
header: 
  seq: 297
  stamp: 
    secs: 1333389303
    nsecs:  86624472
  frame_id: "map"
pose: 
  position: 
    x: 0.00308227539062
    y: 0.000663757324219
    z: 0.0
  orientation: 
    x: 0.0
    y: 0.0
    z: 0.000427417385882
    w: 0.999999908657
---
header: 
  seq: 298
  stamp: 
    secs: 1333389303
    nsecs: 186618472
  frame_id: "map"
pose: 
  position: 
    x: 0.00344085693359
    y: 0.000316619873047
    z: 0.0
  orientation: 
    x: 0.0
    y: 0.0
    z: 0.000354364245
    w: 0.999999937213
---
header: 
  seq: 299
  stamp: 
    secs: 1333389303
    nsecs: 236616472
  frame_id: "map"
pose: 
  position: 
    x: 0.000946044921875
    y: 0.00236129760742
    z: 0.0
  orientation: 
    x: 0.0
    y: 0.0
    z: 0.000326773495186
    w: 0.99999994661
---
header: 
  seq: 300
  stamp: 
    secs: 1333389303
    nsecs: 286614472
  frame_id: "map"
pose: 
  position: 
    x: 0.00345993041992
    y: 0.000957489013672
    z: 0.0
  orientation: 
    x: 0.0
    y: 0.0
    z: 7.63517454456e-05
    w: 0.999999997085
---
header: 
  seq: 301
  stamp: 
    secs: 1333389303
    nsecs: 387625472
  frame_id: "map"
pose: 
  position: 
    x: 0.00347137451172
    y: 0.00188064575195
    z: 0.0
  orientation: 
    x: 0.0
    y: 0.0
    z: 0.000262288635616
    w: 0.999999965602
---
header: 
  seq: 302
  stamp: 
    secs: 1333389303
    nsecs: 437627472
  frame_id: "map"
pose: 
  position: 
    x: 0.0031623840332
    y: 0.00225830078125
    z: 0.0
  orientation: 
    x: 0.0
    y: 0.0
    z: -4.33047571142e-05
    w: 0.999999999062
---
header: 
  seq: 303
  stamp: 
    secs: 1333389303
    nsecs: 537620472
  frame_id: "map"
pose: 
  position: 
    x: 0.00270462036133
    y: 0.0026741027832
    z: 0.0
  orientation: 
    x: 0.0
    y: 0.0
    z: 0.000452406456163
    w: 0.999999897664
---
header: 
  seq: 304
  stamp: 
    secs: 1333389303
    nsecs: 587619472
  frame_id: "map"
pose: 
  position: 
    x: 0.00321197509766
    y: 0.00301361083984
    z: 0.0
  orientation: 
    x: 0.0
    y: 0.0
    z: 7.90943667283e-05
    w: 0.999999996872
---
header: 
  seq: 305
  stamp: 
    secs: 1333389303
    nsecs: 637617472
  frame_id: "map"
pose: 
  position: 
    x: 0.0021858215332
    y: 0.00301361083984
    z: 0.0
  orientation: 
    x: 0.0
    y: 0.0
    z: 0.000122145138144
    w: 0.99999999254
---
header: 
  seq: 306
  stamp: 
    secs: 1333389303
    nsecs: 737612472
  frame_id: "map"
pose: 
  position: 
    x: 0.00330352783203
    y: 0.00160598754883
    z: 0.0
  orientation: 
    x: 0.0
    y: 0.0
    z: 0.000257073636828
    w: 0.999999966957
---
header: 
  seq: 307
  stamp: 
    secs: 1333389303
    nsecs: 788622472
  frame_id: "map"
pose: 
  position: 
    x: 0.00315475463867
    y: 0.00264739990234
    z: 0.0
  orientation: 
    x: 0.0
    y: 0.0
    z: 7.19046292323e-05
    w: 0.999999997415
---
header: 
  seq: 308
  stamp: 
    secs: 1333389303
    nsecs: 888620472
  frame_id: "map"
pose: 
  position: 
    x: 0.0030403137207
    y: 0.00345611572266
    z: 0.0
  orientation: 
    x: 0.0
    y: 0.0
    z: 1.65132223628e-06
    w: 0.999999999999
---
header: 
  seq: 309
  stamp: 
    secs: 1333389303
    nsecs: 938622472
  frame_id: "map"
pose: 
  position: 
    x: 0.00325393676758
    y: 0.00150680541992
    z: 0.0
  orientation: 
    x: 0.0
    y: 0.0
    z: 0.000488069587568
    w: 0.999999880894
---
header: 
  seq: 310
  stamp: 
    secs: 1333389303
    nsecs: 988616472
  frame_id: "map"
pose: 
  position: 
    x: 0.00237274169922
    y: 0.0018424987793
    z: 0.0
  orientation: 
    x: 0.0
    y: 0.0
    z: 0.000102479396267
    w: 0.999999994749
---
header: 
  seq: 311
  stamp: 
