header: 
  seq: 0
  stamp: 
    secs: 27
    nsecs: 800000000
  frame_id: "map"
pose: 
  position: 
    x: 0.0
    y: 0.0
    z: 0.0
  orientation: 
    x: 0.0
    y: 0.0
    z: 0.0
    w: 1.0
---
header: 
  seq: 1
  stamp: 
    secs: 27
    nsecs: 900000000
  frame_id: "map"
pose: 
  position: 
    x: 0.00435066223145
    y: -0.00603866577148
    z: 0.0
  orientation: 
    x: 0.0
    y: 0.0
    z: 0.000866550378085
    w: 0.999999624545
---
header: 
  seq: 2
  stamp: 
    secs: 28
    nsecs:         0
  frame_id: "map"
pose: 
  position: 
    x: 0.00437450408936
    y: -0.00688552856445
    z: 0.0
  orientation: 
    x: 0.0
    y: 0.0
    z: 0.00128606985727
    w: 0.999999173012
---
header: 
  seq: 3
  stamp: 
    secs: 28
    nsecs: 100000000
  frame_id: "map"
pose: 
  position: 
    x: 0.00431060791016
    y: -0.00695419311523
    z: 0.0
  orientation: 
    x: 0.0
    y: 0.0
    z: 0.00150956936123
    w: 0.9999988606
---
header: 
  seq: 4
  stamp: 
    secs: 28
    nsecs: 200000000
  frame_id: "map"
pose: 
  position: 
    x: 0.00333690643311
    y: -0.00741386413574
    z: 0.0
  orientation: 
    x: 0.0
    y: 0.0
    z: 0.00198492929382
    w: 0.999998030026
---
header: 
  seq: 5
  stamp: 
    secs: 28
    nsecs: 300000000
  frame_id: "map"
pose: 
  position: 
    x: 0.00445556640625
    y: -0.00535869598389
    z: 0.0
  orientation: 
    x: 0.0
    y: 0.0
    z: 0.000471789488762
    w: 0.999999888707
---
header: 
  seq: 6
  stamp: 
    secs: 28
    nsecs: 400000000
  frame_id: "map"
pose: 
  position: 
    x: 0.00436687469482
    y: -0.00609016418457
    z: 0.0
  orientation: 
    x: 0.0
    y: 0.0
    z: 0.000824881391186
    w: 0.999999659785
---
header: 
  seq: 7
  stamp: 
    secs: 28
    nsecs: 500000000
  frame_id: "map"
pose: 
  position: 
    x: 0.00437450408936
    y: -0.00688552856445
    z: 0.0
  orientation: 
    x: 0.0
    y: 0.0
    z: 0.00128607358256
    w: 0.999999173007
---
header: 
  seq: 8
  stamp: 
    secs: 28
    nsecs: 600000000
  frame_id: "map"
pose: 
  position: 
    x: 0.00431060791016
    y: -0.00695419311523
    z: 0.0
  orientation: 
    x: 0.0
    y: 0.0
    z: 0.00150956936123
    w: 0.9999988606
---
header: 
  seq: 9
  stamp: 
    secs: 28
    nsecs: 700000000
  frame_id: "map"
pose: 
  position: 
    x: 0.00333690643311
    y: -0.00741386413574
    z: 0.0
  orientation: 
    x: 0.0
    y: 0.0
    z: 0.00198492929382
    w: 0.999998030026
---
header: 
  seq: 10
  stamp: 
    secs: 28
    nsecs: 800000000
  frame_id: "map"
pose: 
  position: 
    x: 0.00445556640625
    y: -0.00535869598389
    z: 0.0
  orientation: 
    x: 0.0
    y: 0.0
    z: 0.000471789488762
    w: 0.999999888707
---
header: 
  seq: 11
  stamp: 
    secs: 28
    nsecs: 900000000
  frame_id: "map"
pose: 
  position: 
    x: 0.00436687469482
    y: -0.00609016418457
    z: 0.0
  orientation: 
    x: 0.0
    y: 0.0
    z: 0.000824881391186
    w: 0.999999659785
---
header: 
  seq: 12
  stamp: 
    secs: 29
    nsecs:         0
  frame_id: "map"
pose: 
  position: 
    x: 0.00437450408936
    y: -0.00688552856445
    z: 0.0
  orientation: 
    x: 0.0
    y: 0.0
    z: 0.00128607358256
    w: 0.999999173007
---
header: 
  seq: 13
  stamp: 
    secs: 29
    nsecs: 100000000
  frame_id: "map"
pose: 
  position: 
    x: 0.00431060791016
    y: -0.00695419311523
    z: 0.0
  orientation: 
    x: 0.0
    y: 0.0
    z: 0.00150956936123
    w: 0.9999988606
---
header: 
  seq: 14
  stamp: 
    secs: 29
    nsecs: 200000000
  frame_id: "map"
pose: 
  position: 
    x: 0.00333690643311
    y: -0.00741386413574
    z: 0.0
  orientation: 
    x: 0.0
    y: 0.0
    z: 0.00198492929382
    w: 0.999998030026
---
header: 
  seq: 15
  stamp: 
    secs: 29
    nsecs: 300000000
  frame_id: "map"
pose: 
  position: 
    x: 0.00445556640625
    y: -0.00535869598389
    z: 0.0
  orientation: 
    x: 0.0
    y: 0.0
    z: 0.000471789488762
    w: 0.999999888707
---
header: 
  seq: 16
  stamp: 
    secs: 29
    nsecs: 400000000
  frame_id: "map"
pose: 
  position: 
    x: 0.00436687469482
    y: -0.00609016418457
    z: 0.0
  orientation: 
    x: 0.0
    y: 0.0
    z: 0.000824881391186
    w: 0.999999659785
---
header: 
  seq: 17
  stamp: 
    secs: 29
    nsecs: 500000000
  frame_id: "map"
pose: 
  position: 
    x: 0.00437450408936
    y: -0.00688552856445
    z: 0.0
  orientation: 
    x: 0.0
    y: 0.0
    z: 0.00128607358256
    w: 0.999999173007
---
header: 
  seq: 18
  stamp: 
    secs: 29
    nsecs: 600000000
  frame_id: "map"
pose: 
  position: 
    x: 0.00431060791016
    y: -0.00695419311523
    z: 0.0
  orientation: 
    x: 0.0
    y: 0.0
    z: 0.00150956936123
    w: 0.9999988606
---
header: 
  seq: 19
  stamp: 
    secs: 29
    nsecs: 700000000
  frame_id: "map"
pose: 
  position: 
    x: 0.00333690643311
    y: -0.00741386413574
    z: 0.0
  orientation: 
    x: 0.0
    y: 0.0
    z: 0.00198492929382
    w: 0.999998030026
---
header: 
  seq: 20
  stamp: 
    secs: 29
    nsecs: 800000000
  frame_id: "map"
pose: 
  position: 
    x: 0.00445556640625
    y: -0.00535869598389
    z: 0.0
  orientation: 
    x: 0.0
    y: 0.0
    z: 0.000471789488762
    w: 0.999999888707
---
header: 
  seq: 21
  stamp: 
    secs: 29
    nsecs: 900000000
  frame_id: "map"
pose: 
  position: 
    x: 0.00436687469482
    y: -0.00609016418457
    z: 0.0
  orientation: 
    x: 0.0
    y: 0.0
    z: 0.000824881391186
    w: 0.999999659785
---
header: 
  seq: 22
  stamp: 
    secs: 30
    nsecs:         0
  frame_id: "map"
pose: 
  position: 
    x: 0.00437450408936
    y: -0.00688552856445
    z: 0.0
  orientation: 
    x: 0.0
    y: 0.0
    z: 0.00128607358256
    w: 0.999999173007
---
header: 
  seq: 23
  stamp: 
    secs: 30
    nsecs: 100000000
  frame_id: "map"
pose: 
  position: 
    x: 0.00431060791016
    y: -0.00695419311523
    z: 0.0
  orientation: 
    x: 0.0
    y: 0.0
    z: 0.00150956936123
    w: 0.9999988606
---
header: 
  seq: 24
  stamp: 
    secs: 30
    nsecs: 200000000
  frame_id: "map"
pose: 
  position: 
    x: 0.00333690643311
    y: -0.00741386413574
    z: 0.0
  orientation: 
    x: 0.0
    y: 0.0
    z: 0.00198492929382
    w: 0.999998030026
---
header: 
  seq: 25
  stamp: 
    secs: 30
    nsecs: 300000000
  frame_id: "map"
pose: 
  position: 
    x: 0.00445556640625
    y: -0.00535869598389
    z: 0.0
  orientation: 
    x: 0.0
    y: 0.0
    z: 0.000471789488762
    w: 0.999999888707
---
header: 
  seq: 26
  stamp: 
    secs: 30
    nsecs: 400000000
  frame_id: "map"
pose: 
  position: 
    x: 0.00436687469482
    y: -0.00609016418457
    z: 0.0
  orientation: 
    x: 0.0
    y: 0.0
    z: 0.000824881391186
    w: 0.999999659785
---
header: 
  seq: 27
  stamp: 
    secs: 30
    nsecs: 500000000
  frame_id: "map"
pose: 
  position: 
    x: 0.0125274658203
    y: -0.00494861602783
    z: 0.0
  orientation: 
    x: 0.0
    y: 0.0
    z: -0.0495349361903
    w: 0.998772391537
---
header: 
  seq: 28
  stamp: 
    secs: 30
    nsecs: 600000000
  frame_id: "map"
pose: 
  position: 
    x: 0.0134220123291
    y: -0.00447559356689
    z: 0.0
  orientation: 
    x: 0.0
    y: 0.0
    z: -0.100808664075
    w: 0.994905831347
---
header: 
  seq: 29
  stamp: 
    secs: 30
    nsecs: 700000000
  frame_id: "map"
pose: 
  position: 
    x: 0.0109043121338
    y: -0.00765037536621
    z: 0.0
  orientation: 
    x: 0.0
    y: 0.0
    z: -0.147272261245
    w: 0.989095991837
---
header: 
  seq: 30
  stamp: 
    secs: 30
    nsecs: 800000000
  frame_id: "map"
pose: 
  position: 
    x: 0.0114717483521
    y: -0.00786018371582
    z: 0.0
  orientation: 
    x: 0.0
    y: 0.0
    z: -0.196933775099
    w: 0.980416793117
---
header: 
  seq: 31
  stamp: 
    secs: 30
    nsecs: 900000000
  frame_id: "map"
pose: 
  position: 
    x: 0.00783824920654
    y: -0.00919342041016
    z: 0.0
  orientation: 
    x: 0.0
    y: 0.0
    z: -0.24510627971
    w: 0.969496215385
---
header: 
  seq: 32
  stamp: 
    secs: 31
    nsecs:         0
  frame_id: "map"
pose: 
  position: 
    x: 0.00954627990723
    y: -0.00941753387451
    z: 0.0
  orientation: 
    x: 0.0
    y: 0.0
    z: -0.293680742394
    w: 0.955903562891
---
header: 
  seq: 33
  stamp: 
    secs: 31
    nsecs: 100000000
  frame_id: "map"
pose: 
  position: 
    x: 0.00809192657471
    y: -0.0124092102051
    z: 0.0
  orientation: 
    x: 0.0
    y: 0.0
    z: -0.341161553233
    w: 0.940004677965
---
header: 
  seq: 34
  stamp: 
    secs: 31
    nsecs: 200000000
  frame_id: "map"
pose: 
  position: 
    x: 0.00736522674561
    y: -0.00961494445801
    z: 0.0
  orientation: 
    x: 0.0
    y: 0.0
    z: -0.386907998443
    w: 0.922118322527
---
header: 
  seq: 35
  stamp: 
    secs: 31
    nsecs: 300000000
  frame_id: "map"
pose: 
  position: 
    x: 0.00659370422363
    y: -0.00910091400146
    z: 0.0
  orientation: 
    x: 0.0
    y: 0.0
    z: -0.433824750199
    w: 0.90099727309
---
header: 
  seq: 36
  stamp: 
    secs: 31
    nsecs: 400000000
  frame_id: "map"
pose: 
  position: 
    x: 0.00284767150879
    y: -0.0064754486084
    z: 0.0
  orientation: 
    x: 0.0
    y: 0.0
    z: -0.479945134463
    w: 0.877298505587
---
header: 
  seq: 37
  stamp: 
    secs: 31
    nsecs: 500000000
  frame_id: "map"
pose: 
  position: 
    x: 0.0117311477661
    y: -0.00778865814209
    z: 0.0
  orientation: 
    x: 0.0
    y: 0.0
    z: -0.5236567447
    w: 0.851929347851
---
header: 
  seq: 38
  stamp: 
    secs: 31
    nsecs: 600000000
  frame_id: "map"
pose: 
  position: 
    x: 0.00963401794434
    y: -0.00844955444336
    z: 0.0
  orientation: 
    x: 0.0
    y: 0.0
    z: -0.56580669284
    w: 0.824537922923
---
header: 
  seq: 39
  stamp: 
    secs: 31
    nsecs: 700000000
  frame_id: "map"
pose: 
  position: 
    x: 0.00762462615967
    y: -0.0095911026001
    z: 0.0
  orientation: 
    x: 0.0
    y: 0.0
    z: -0.606197016634
    w: 0.795314514531
---
header: 
  seq: 40
  stamp: 
    secs: 31
    nsecs: 800000000
  frame_id: "map"
pose: 
  position: 
    x: 0.00539112091064
    y: -0.0107049942017
    z: 0.0
  orientation: 
    x: 0.0
    y: 0.0
    z: -0.644970481885
    w: 0.764207483278
---
header: 
  seq: 41
  stamp: 
    secs: 31
    nsecs: 900000000
  frame_id: "map"
pose: 
  position: 
    x: 0.000814437866211
    y: -0.0102777481079
    z: 0.0
  orientation: 
    x: 0.0
    y: 0.0
    z: -0.680496298014
    w: 0.732751518858
---
header: 
  seq: 42
  stamp: 
    secs: 32
    nsecs:         0
  frame_id: "map"
pose: 
  position: 
    x: 0.0119800567627
    y: -0.00884914398193
    z: 0.0
  orientation: 
    x: 0.0
    y: 0.0
    z: -0.717567272335
    w: 0.696489202841
---
header: 
  seq: 43
  stamp: 
    secs: 32
    nsecs: 100000000
  frame_id: "map"
pose: 
  position: 
    x: 0.0102815628052
    y: -0.00871276855469
    z: 0.0
  orientation: 
    x: 0.0
    y: 0.0
    z: -0.75158013871
    w: 0.659641793019
---
header: 
  seq: 44
  stamp: 
    secs: 32
    nsecs: 200000000
  frame_id: "map"
pose: 
  position: 
    x: 0.00688457489014
    y: -0.0109796524048
    z: 0.0
  orientation: 
    x: 0.0
    y: 0.0
    z: -0.783243782767
    w: 0.621714706885
---
header: 
  seq: 45
  stamp: 
    secs: 32
    nsecs: 300000000
  frame_id: "map"
pose: 
  position: 
    x: 0.00487518310547
    y: -0.0104503631592
    z: 0.0
  orientation: 
    x: 0.0
    y: 0.0
    z: -0.81336237847
    w: 0.581757373215
---
header: 
  seq: 46
  stamp: 
    secs: 32
    nsecs: 400000000
  frame_id: "map"
pose: 
  position: 
    x: 0.00311279296875
    y: -0.00933647155762
    z: 0.0
  orientation: 
    x: 0.0
    y: 0.0
    z: -0.841574989835
    w: 0.540140293335
---
header: 
  seq: 47
  stamp: 
    secs: 32
    nsecs: 500000000
  frame_id: "map"
pose: 
  position: 
    x: 0.0150346755981
    y: -0.0101175308228
    z: 0.0
  orientation: 
    x: 0.0
    y: 0.0
    z: -0.868281205703
    w: 0.496072321162
---
header: 
  seq: 48
  stamp: 
    secs: 32
    nsecs: 600000000
  frame_id: "map"
pose: 
  position: 
    x: 0.0155029296875
    y: -0.0125341415405
    z: 0.0
  orientation: 
    x: 0.0
    y: 0.0
    z: -0.892150090556
    w: 0.451739101608
---
header: 
  seq: 49
  stamp: 
    secs: 32
    nsecs: 700000000
  frame_id: "map"
pose: 
  position: 
    x: 0.0129194259644
    y: -0.0120420455933
    z: 0.0
  orientation: 
    x: 0.0
    y: 0.0
    z: -0.913552064763
    w: 0.406721802916
---
header: 
  seq: 50
  stamp: 
    secs: 32
    nsecs: 800000000
  frame_id: "map"
pose: 
  position: 
    x: 0.0101222991943
    y: -0.0119657516479
    z: 0.0
  orientation: 
    x: 0.0
    y: 0.0
    z: -0.932707228045
    w: 0.360634478041
---
header: 
  seq: 51
  stamp: 
    secs: 32
    nsecs: 900000000
  frame_id: "map"
pose: 
  position: 
    x: 0.00832366943359
    y: -0.0103359222412
    z: 0.0
  orientation: 
    x: 0.0
    y: 0.0
    z: -0.949534454203
    w: 0.313662749273
---
header: 
  seq: 52
  stamp: 
    secs: 33
    nsecs:         0
  frame_id: "map"
pose: 
  position: 
    x: 0.00620269775391
    y: -0.00909328460693
    z: 0.0
  orientation: 
    x: 0.0
    y: 0.0
    z: -0.963989795159
    w: 0.265939231459
---
header: 
  seq: 53
  stamp: 
    secs: 33
    nsecs: 100000000
  frame_id: "map"
pose: 
  position: 
    x: 0.00406646728516
    y: -0.0106363296509
    z: 0.0
  orientation: 
    x: 0.0
    y: 0.0
    z: -0.975796748947
    w: 0.218679456615
---
header: 
  seq: 54
  stamp: 
    secs: 33
    nsecs: 200000000
  frame_id: "map"
pose: 
  position: 
    x: 0.00404167175293
    y: -0.0103731155396
    z: 0.0
  orientation: 
    x: 0.0
    y: 0.0
    z: -0.985478503623
    w: 0.169800232321
---
header: 
  seq: 55
  stamp: 
    secs: 33
    nsecs: 300000000
  frame_id: "map"
pose: 
  position: 
    x: 0.00152015686035
    y: -0.0118350982666
    z: 0.0
  orientation: 
    x: 0.0
    y: 0.0
    z: -0.992649120222
    w: 0.121027782442
---
header: 
  seq: 56
  stamp: 
    secs: 33
    nsecs: 400000000
  frame_id: "map"
pose: 
  position: 
    x: 0.00147724151611
    y: -0.0116529464722
    z: 0.0
  orientation: 
    x: 0.0
    y: 0.0
    z: -0.99267423176
    w: 0.120821643754
---
header: 
  seq: 57
  stamp: 
    secs: 33
    nsecs: 500000000
  frame_id: "map"
pose: 
  position: 
    x: 0.00147724151611
    y: -0.0116529464722
    z: 0.0
  orientation: 
    x: 0.0
    y: 0.0
    z: -0.99267423176
    w: 0.120821643754
---
header: 
  seq: 58
  stamp: 
    secs: 33
    nsecs: 600000000
  frame_id: "map"
pose: 
  position: 
    x: 0.00147724151611
    y: -0.0116529464722
    z: 0.0
  orientation: 
    x: 0.0
    y: 0.0
    z: -0.99267423176
    w: 0.120821643754
---
header: 
  seq: 59
  stamp: 
    secs: 33
    nsecs: 700000000
  frame_id: "map"
pose: 
  position: 
    x: 0.00147724151611
    y: -0.0116529464722
    z: 0.0
  orientation: 
    x: 0.0
    y: 0.0
    z: -0.99267423176
    w: 0.120821643754
---
header: 
  seq: 60
  stamp: 
    secs: 33
    nsecs: 800000000
  frame_id: "map"
pose: 
  position: 
    x: 0.00147724151611
    y: -0.0116529464722
    z: 0.0
  orientation: 
    x: 0.0
    y: 0.0
    z: -0.99267423176
    w: 0.120821643754
---
header: 
  seq: 61
  stamp: 
    secs: 33
    nsecs: 900000000
  frame_id: "map"
pose: 
  position: 
    x: 0.00398540496826
    y: -0.0103778839111
    z: 0.0
  orientation: 
    x: 0.0
    y: 0.0
    z: -0.985476742537
    w: 0.169810452915
---
header: 
  seq: 62
  stamp: 
    secs: 34
    nsecs:         0
  frame_id: "map"
pose: 
  position: 
    x: 0.00407123565674
    y: -0.010645866394
    z: 0.0
  orientation: 
    x: 0.0
    y: 0.0
    z: -0.975797348521
    w: 0.218676781161
---
header: 
  seq: 63
  stamp: 
    secs: 34
    nsecs: 100000000
  frame_id: "map"
pose: 
  position: 
    x: 0.00406646728516
    y: -0.0106363296509
    z: 0.0
  orientation: 
    x: 0.0
    y: 0.0
    z: -0.975796775015
    w: 0.218679340291
---
header: 
  seq: 64
  stamp: 
    secs: 34
    nsecs: 200000000
  frame_id: "map"
pose: 
  position: 
    x: 0.00620269775391
    y: -0.00908660888672
    z: 0.0
  orientation: 
    x: 0.0
    y: 0.0
    z: -0.963990429205
    w: 0.265936933127
---
header: 
  seq: 65
  stamp: 
    secs: 34
    nsecs: 300000000
  frame_id: "map"
pose: 
  position: 
    x: 0.00832366943359
    y: -0.0103349685669
    z: 0.0
  orientation: 
    x: 0.0
    y: 0.0
    z: -0.949534454203
    w: 0.313662749273
---
header: 
  seq: 66
  stamp: 
    secs: 34
    nsecs: 400000000
  frame_id: "map"
pose: 
  position: 
    x: 0.0101222991943
    y: -0.0119657516479
    z: 0.0
  orientation: 
    x: 0.0
    y: 0.0
    z: -0.932707228045
    w: 0.360634478041
---
header: 
  seq: 67
  stamp: 
    secs: 34
    nsecs: 500000000
  frame_id: "map"
pose: 
  position: 
    x: 0.0129261016846
    y: -0.0120792388916
    z: 0.0
  orientation: 
    x: 0.0
    y: 0.0
    z: -0.913539846126
    w: 0.406749246514
---
header: 
  seq: 68
  stamp: 
    secs: 34
    nsecs: 600000000
  frame_id: "map"
pose: 
  position: 
    x: 0.0155029296875
    y: -0.0125303268433
    z: 0.0
  orientation: 
    x: 0.0
    y: 0.0
    z: -0.892150305961
    w: 0.451738676198
---
header: 
  seq: 69
  stamp: 
    secs: 34
    nsecs: 700000000
  frame_id: "map"
pose: 
  position: 
    x: 0.0179882049561
    y: -0.0119485855103
    z: 0.0
  orientation: 
    x: 0.0
    y: 0.0
    z: -0.868482670992
    w: 0.495719527745
---
header: 
  seq: 70
  stamp: 
    secs: 34
    nsecs: 800000000
  frame_id: "map"
pose: 
  position: 
    x: 0.00439262390137
    y: -0.011266708374
    z: 0.0
  orientation: 
    x: 0.0
    y: 0.0
    z: -0.84149320522
    w: 0.540267698062
---
header: 
  seq: 71
  stamp: 
    secs: 34
    nsecs: 900000000
  frame_id: "map"
pose: 
  position: 
    x: 0.00697612762451
    y: -0.0131492614746
    z: 0.0
  orientation: 
    x: 0.0
    y: 0.0
    z: -0.813365845999
    w: 0.581752525187
---
header: 
  seq: 72
  stamp: 
    secs: 35
    nsecs:         0
  frame_id: "map"
pose: 
  position: 
    x: 0.0101680755615
    y: -0.0125589370728
    z: 0.0
  orientation: 
    x: 0.0
    y: 0.0
    z: -0.783488298911
    w: 0.621406538
---
header: 
  seq: 73
  stamp: 
    secs: 35
    nsecs: 100000000
  frame_id: "map"
pose: 
  position: 
    x: 0.0130481719971
    y: -0.0119304656982
    z: 0.0
  orientation: 
    x: 0.0
    y: 0.0
    z: -0.751705312778
    w: 0.659499145368
---
header: 
  seq: 74
  stamp: 
    secs: 35
    nsecs: 200000000
  frame_id: "map"
pose: 
  position: 
    x: 0.0130481719971
    y: -0.0119304656982
    z: 0.0
  orientation: 
    x: 0.0
    y: 0.0
    z: -0.751705155541
    w: 0.659499324588
---
header: 
  seq: 75
  stamp: 
    secs: 35
    nsecs: 300000000
  frame_id: "map"
pose: 
  position: 
    x: 0.0130481719971
    y: -0.0119304656982
    z: 0.0
  orientation: 
    x: 0.0
    y: 0.0
    z: -0.751705155541
    w: 0.659499324588
---
header: 
  seq: 76
  stamp: 
    secs: 35
    nsecs: 400000000
  frame_id: "map"
pose: 
  position: 
    x: 0.0130481719971
    y: -0.0119304656982
    z: 0.0
  orientation: 
    x: 0.0
    y: 0.0
    z: -0.751705155541
    w: 0.659499324588
---
header: 
  seq: 77
  stamp: 
    secs: 35
    nsecs: 500000000
  frame_id: "map"
pose: 
  position: 
    x: 0.0130481719971
    y: -0.0119304656982
    z: 0.0
  orientation: 
    x: 0.0
    y: 0.0
    z: -0.751705155541
    w: 0.659499324588
---
header: 
  seq: 78
  stamp: 
    secs: 35
    nsecs: 600000000
  frame_id: "map"
pose: 
  position: 
    x: 0.0130481719971
    y: -0.0119304656982
    z: 0.0
  orientation: 
    x: 0.0
    y: 0.0
    z: -0.751705155541
    w: 0.659499324588
---
header: 
  seq: 79
  stamp: 
    secs: 35
    nsecs: 700000000
  frame_id: "map"
pose: 
  position: 
    x: -0.00583171844482
    y: -0.0541477203369
    z: 0.0
  orientation: 
    x: 0.0
    y: 0.0
    z: -0.750773407203
    w: 0.660559831534
---
header: 
  seq: 80
  stamp: 
    secs: 35
    nsecs: 800000000
  frame_id: "map"
pose: 
  position: 
    x: -0.00634670257568
    y: -0.101274490356
    z: 0.0
  orientation: 
    x: 0.0
    y: 0.0
    z: -0.751472240849
    w: 0.659764708994
---
header: 
  seq: 81
  stamp: 
    secs: 35
    nsecs: 900000000
  frame_id: "map"
pose: 
  position: 
    x: -0.00638389587402
    y: -0.101259231567
    z: 0.0
  orientation: 
    x: 0.0
    y: 0.0
    z: -0.751478847418
    w: 0.659757184033
---
header: 
  seq: 82
  stamp: 
    secs: 36
    nsecs:         0
  frame_id: "map"
pose: 
  position: 
    x: -0.00941276550293
    y: -0.153191566467
    z: 0.0
  orientation: 
    x: 0.0
    y: 0.0
    z: -0.751927602962
    w: 0.659245690091
---
header: 
  seq: 83
  stamp: 
    secs: 36
    nsecs: 100000000
  frame_id: "map"
pose: 
  position: 
    x: -0.026029586792
    y: -0.20276260376
    z: 0.0
  orientation: 
    x: 0.0
    y: 0.0
    z: -0.75092772665
    w: 0.660384395142
---
header: 
  seq: 84
  stamp: 
    secs: 36
    nsecs: 200000000
  frame_id: "map"
pose: 
  position: 
    x: -0.0285387039185
    y: -0.255559921265
    z: 0.0
  orientation: 
    x: 0.0
    y: 0.0
    z: -0.751027067783
    w: 0.660271416508
---
header: 
  seq: 85
  stamp: 
    secs: 36
    nsecs: 300000000
  frame_id: "map"
pose: 
  position: 
    x: -0.0304574966431
    y: -0.301198959351
    z: 0.0
  orientation: 
    x: 0.0
    y: 0.0
    z: -0.751798389505
    w: 0.659393040256
---
header: 
  seq: 86
  stamp: 
    secs: 36
    nsecs: 400000000
  frame_id: "map"
pose: 
  position: 
    x: -0.03049659729
    y: -0.301156044006
    z: 0.0
  orientation: 
    x: 0.0
    y: 0.0
    z: -0.751793044288
    w: 0.659399134486
---
header: 
  seq: 87
  stamp: 
    secs: 36
    nsecs: 500000000
  frame_id: "map"
pose: 
  position: 
    x: -0.0312910079956
    y: -0.350435256958
    z: 0.0
  orientation: 
    x: 0.0
    y: 0.0
    z: -0.752646237635
    w: 0.658425121768
---
header: 
  seq: 88
  stamp: 
    secs: 36
    nsecs: 600000000
  frame_id: "map"
pose: 
  position: 
    x: -0.0509729385376
    y: -0.406639099121
    z: 0.0
  orientation: 
    x: 0.0
    y: 0.0
    z: -0.751201936135
    w: 0.660072459013
---
header: 
  seq: 89
  stamp: 
    secs: 36
    nsecs: 700000000
  frame_id: "map"
pose: 
  position: 
    x: -0.0509042739868
    y: -0.405035018921
    z: 0.0
  orientation: 
    x: 0.0
    y: 0.0
    z: -0.751252136121
    w: 0.660015324045
---
header: 
  seq: 90
  stamp: 
    secs: 36
    nsecs: 800000000
  frame_id: "map"
pose: 
  position: 
    x: -0.055926322937
    y: -0.455688476562
    z: 0.0
  orientation: 
    x: 0.0
    y: 0.0
    z: -0.751095227062
    w: 0.660193880526
---
header: 
  seq: 91
  stamp: 
    secs: 36
    nsecs: 900000000
  frame_id: "map"
pose: 
  position: 
    x: -0.0592670440674
    y: -0.505512237549
    z: 0.0
  orientation: 
    x: 0.0
    y: 0.0
    z: -0.751347488388
    w: 0.659906775002
---
header: 
  seq: 92
  stamp: 
    secs: 37
    nsecs:         0
  frame_id: "map"
pose: 
  position: 
    x: -0.0592756271362
    y: -0.505476951599
    z: 0.0
  orientation: 
    x: 0.0
    y: 0.0
    z: -0.751321842373
    w: 0.659935973541
---
header: 
  seq: 93
  stamp: 
    secs: 37
    nsecs: 100000000
  frame_id: "map"
pose: 
  position: 
    x: -0.0717248916626
    y: -0.558696746826
    z: 0.0
  orientation: 
    x: 0.0
    y: 0.0
    z: -0.750539487894
    w: 0.660825602645
---
header: 
  seq: 94
  stamp: 
    secs: 37
    nsecs: 200000000
  frame_id: "map"
pose: 
  position: 
    x: -0.0746688842773
    y: -0.604539871216
    z: 0.0
  orientation: 
    x: 0.0
    y: 0.0
    z: -0.75108861612
    w: 0.660201401646
---
header: 
  seq: 95
  stamp: 
    secs: 37
    nsecs: 300000000
  frame_id: "map"
pose: 
  position: 
    x: -0.0746688842773
    y: -0.604539871216
    z: 0.0
  orientation: 
    x: 0.0
    y: 0.0
    z: -0.75108861612
    w: 0.660201401646
---
header: 
  seq: 96
  stamp: 
    secs: 37
    nsecs: 400000000
  frame_id: "map"
pose: 
  position: 
    x: -0.0780153274536
    y: -0.656374931335
    z: 0.0
  orientation: 
    x: 0.0
    y: 0.0
    z: -0.751446757662
    w: 0.659793733223
---
header: 
  seq: 97
  stamp: 
    secs: 37
    nsecs: 500000000
  frame_id: "map"
pose: 
  position: 
    x: -0.0910673141479
    y: -0.701274871826
    z: 0.0
  orientation: 
    x: 0.0
    y: 0.0
    z: -0.751508733337
    w: 0.659723141718
---
header: 
  seq: 98
  stamp: 
    secs: 37
    nsecs: 600000000
  frame_id: "map"
pose: 
  position: 
    x: -0.0910673141479
    y: -0.701274871826
    z: 0.0
  orientation: 
    x: 0.0
    y: 0.0
    z: -0.751508733337
    w: 0.659723141718
---
header: 
  seq: 99
  stamp: 
    secs: 37
    nsecs: 700000000
  frame_id: "map"
pose: 
  position: 
    x: -0.0910673141479
    y: -0.701274871826
    z: 0.0
  orientation: 
    x: 0.0
    y: 0.0
    z: -0.751508733337
    w: 0.659723141718
---
header: 
  seq: 100
  stamp: 
    secs: 37
    nsecs: 800000000
  frame_id: "map"
pose: 
  position: 
    x: -0.0902767181396
    y: -0.702973365784
    z: 0.0
  orientation: 
    x: 0.0
    y: 0.0
    z: -0.717267807138
    w: 0.69679759819
---
header: 
  seq: 101
  stamp: 
    secs: 37
    nsecs: 900000000
  frame_id: "map"
pose: 
  position: 
    x: -0.0889625549316
    y: -0.703702926636
    z: 0.0
  orientation: 
    x: 0.0
    y: 0.0
    z: -0.681454651967
    w: 0.731860340032
---
header: 
  seq: 102
  stamp: 
    secs: 38
    nsecs:         0
  frame_id: "map"
pose: 
  position: 
    x: -0.0867033004761
    y: -0.759488105774
    z: 0.0
  orientation: 
    x: 0.0
    y: 0.0
    z: -0.680527918366
    w: 0.7327221522
---
header: 
  seq: 103
  stamp: 
    secs: 38
    nsecs: 100000000
  frame_id: "map"
pose: 
  position: 
    x: -0.0835094451904
    y: -0.80667591095
    z: 0.0
  orientation: 
    x: 0.0
    y: 0.0
    z: -0.68133319817
    w: 0.731973410085
---
header: 
  seq: 104
  stamp: 
    secs: 38
    nsecs: 200000000
  frame_id: "map"
pose: 
  position: 
    x: -0.0801849365234
    y: -0.858323097229
    z: 0.0
  orientation: 
    x: 0.0
    y: 0.0
    z: -0.681408061996
    w: 0.731903718426
---
header: 
  seq: 105
  stamp: 
    secs: 38
    nsecs: 300000000
  frame_id: "map"
pose: 
  position: 
    x: -0.0727291107178
    y: -0.910995483398
    z: 0.0
  orientation: 
    x: 0.0
    y: 0.0
    z: -0.680881071703
    w: 0.73239399656
---
header: 
  seq: 106
  stamp: 
    secs: 38
    nsecs: 400000000
  frame_id: "map"
pose: 
  position: 
    x: -0.0696630477905
    y: -0.960653305054
    z: 0.0
  orientation: 
    x: 0.0
    y: 0.0
    z: -0.681163375712
    w: 0.732131446933
---
header: 
  seq: 107
  stamp: 
    secs: 38
    nsecs: 500000000
  frame_id: "map"
pose: 
  position: 
    x: -0.0664501190186
    y: -1.00803470612
    z: 0.0
  orientation: 
    x: 0.0
    y: 0.0
    z: -0.681786285747
    w: 0.731551406647
---
header: 
  seq: 108
  stamp: 
    secs: 38
    nsecs: 600000000
  frame_id: "map"
pose: 
  position: 
    x: -0.0652780532837
    y: -1.05921459198
    z: 0.0
  orientation: 
    x: 0.0
    y: 0.0
    z: -0.680749050693
    w: 0.732516709694
---
header: 
  seq: 109
  stamp: 
    secs: 38
    nsecs: 700000000
  frame_id: "map"
pose: 
  position: 
    x: -0.0628862380981
    y: -1.10940265656
    z: 0.0
  orientation: 
    x: 0.0
    y: 0.0
    z: -0.680979374566
    w: 0.732302595527
---
header: 
  seq: 110
  stamp: 
    secs: 38
    nsecs: 800000000
  frame_id: "map"
pose: 
  position: 
    x: -0.059907913208
    y: -1.16020679474
    z: 0.0
  orientation: 
    x: 0.0
    y: 0.0
    z: -0.681147665719
    w: 0.732146062945
---
header: 
  seq: 111
  stamp: 
    secs: 38
    nsecs: 900000000
  frame_id: "map"
pose: 
  position: 
    x: -0.0492973327637
    y: -1.20718097687
    z: 0.0
  orientation: 
    x: 0.0
    y: 0.0
    z: -0.681551836388
    w: 0.731769836981
---
header: 
  seq: 112
  stamp: 
    secs: 39
    nsecs:         0
  frame_id: "map"
pose: 
  position: 
    x: -0.0492944717407
    y: -1.20674419403
    z: 0.0
  orientation: 
    x: 0.0
    y: 0.0
    z: -0.681566491524
    w: 0.731756187287
---
header: 
  seq: 113
  stamp: 
    secs: 39
    nsecs: 100000000
  frame_id: "map"
pose: 
  position: 
    x: -0.0473508834839
    y: -1.25930118561
    z: 0.0
  orientation: 
    x: 0.0
    y: 0.0
    z: -0.681436679384
    w: 0.731877074371
---
header: 
  seq: 114
  stamp: 
    secs: 39
    nsecs: 200000000
  frame_id: "map"
pose: 
  position: 
    x: -0.0450267791748
    y: -1.30575752258
    z: 0.0
  orientation: 
    x: 0.0
    y: 0.0
    z: -0.681560559716
    w: 0.731761712198
---
header: 
  seq: 115
  stamp: 
    secs: 39
    nsecs: 300000000
  frame_id: "map"
pose: 
  position: 
    x: -0.0427331924438
    y: -1.35889339447
    z: 0.0
  orientation: 
    x: 0.0
    y: 0.0
    z: -0.681410679484
    w: 0.731901281517
---
header: 
  seq: 116
  stamp: 
    secs: 39
    nsecs: 400000000
  frame_id: "map"
pose: 
  position: 
    x: -0.0405550003052
    y: -1.40533924103
    z: 0.0
  orientation: 
    x: 0.0
    y: 0.0
    z: -0.681425337252
    w: 0.731887634649
---
header: 
  seq: 117
  stamp: 
    secs: 39
    nsecs: 500000000
  frame_id: "map"
pose: 
  position: 
    x: -0.0405550003052
    y: -1.40533924103
    z: 0.0
  orientation: 
    x: 0.0
    y: 0.0
    z: -0.681425162756
    w: 0.731887797113
---
header: 
  seq: 118
  stamp: 
    secs: 39
    nsecs: 600000000
  frame_id: "map"
pose: 
  position: 
    x: -0.0312070846558
    y: -1.458568573
    z: 0.0
  orientation: 
    x: 0.0
    y: 0.0
    z: -0.681463376374
    w: 0.731852216408
---
header: 
  seq: 119
  stamp: 
    secs: 39
    nsecs: 700000000
  frame_id: "map"
pose: 
  position: 
    x: -0.0264148712158
    y: -1.50732040405
    z: 0.0
  orientation: 
    x: 0.0
    y: 0.0
    z: -0.681965215596
    w: 0.73138460793
---
header: 
  seq: 120
  stamp: 
    secs: 39
    nsecs: 800000000
  frame_id: "map"
pose: 
  position: 
    x: -0.0264072418213
    y: -1.50720214844
    z: 0.0
  orientation: 
    x: 0.0
    y: 0.0
    z: -0.681994858901
    w: 0.731356966489
---
header: 
  seq: 121
  stamp: 
    secs: 39
    nsecs: 900000000
  frame_id: "map"
pose: 
  position: 
    x: -0.0257701873779
    y: -1.55986595154
    z: 0.0
  orientation: 
    x: 0.0
    y: 0.0
    z: -0.681234241339
    w: 0.73206550829
---
header: 
  seq: 122
  stamp: 
    secs: 40
    nsecs:         0
  frame_id: "map"
pose: 
  position: 
    x: -0.0222215652466
    y: -1.60733318329
    z: 0.0
  orientation: 
    x: 0.0
    y: 0.0
    z: -0.6820421115
    w: 0.731312900296
---
header: 
  seq: 123
  stamp: 
    secs: 40
    nsecs: 100000000
  frame_id: "map"
pose: 
  position: 
    x: -0.0202598571777
    y: -1.66140460968
    z: 0.0
  orientation: 
    x: 0.0
    y: 0.0
    z: -0.68115569531
    w: 0.732138592581
---
header: 
  seq: 124
  stamp: 
    secs: 40
    nsecs: 200000000
  frame_id: "map"
pose: 
  position: 
    x: -0.0187273025513
    y: -1.70860862732
    z: 0.0
  orientation: 
    x: 0.0
    y: 0.0
    z: -0.68120945655
    w: 0.732088571354
---
header: 
  seq: 125
  stamp: 
    secs: 40
    nsecs: 300000000
  frame_id: "map"
pose: 
  position: 
    x: -0.0187273025513
    y: -1.70860862732
    z: 0.0
  orientation: 
    x: 0.0
    y: 0.0
    z: -0.68120945655
    w: 0.732088571354
---
header: 
  seq: 126
  stamp: 
    secs: 40
    nsecs: 400000000
  frame_id: "map"
pose: 
  position: 
    x: -0.00483894348145
    y: -1.76054000854
    z: 0.0
  orientation: 
    x: 0.0
    y: 0.0
    z: -0.682409224684
    w: 0.730970348281
---
header: 
  seq: 127
  stamp: 
    secs: 40
    nsecs: 500000000
  frame_id: "map"
pose: 
  position: 
    x: -0.00214004516602
    y: -1.80678081512
    z: 0.0
  orientation: 
    x: 0.0
    y: 0.0
    z: -0.682701780935
    w: 0.730697118038
---
header: 
  seq: 128
  stamp: 
    secs: 40
    nsecs: 600000000
  frame_id: "map"
pose: 
  position: 
    x: -0.00214004516602
    y: -1.80678081512
    z: 0.0
  orientation: 
    x: 0.0
    y: 0.0
    z: -0.682701780935
    w: 0.730697118038
---
header: 
  seq: 129
  stamp: 
    secs: 40
    nsecs: 700000000
  frame_id: "map"
pose: 
  position: 
    x: -0.00233173370361
    y: -1.86347961426
    z: 0.0
  orientation: 
    x: 0.0
    y: 0.0
    z: -0.681767099814
    w: 0.731569286952
---
header: 
  seq: 130
  stamp: 
    secs: 40
    nsecs: 800000000
  frame_id: "map"
pose: 
  position: 
    x: -0.0023250579834
    y: -1.90840244293
    z: 0.0
  orientation: 
    x: 0.0
    y: 0.0
    z: -0.681372463304
    w: 0.73193685947
---
header: 
  seq: 131
  stamp: 
    secs: 40
    nsecs: 900000000
  frame_id: "map"
pose: 
  position: 
    x: 8.10623168945e-05
    y: -1.96146965027
    z: 0.0
  orientation: 
    x: 0.0
    y: 0.0
    z: -0.680585390787
    w: 0.732668769532
---
header: 
  seq: 132
  stamp: 
    secs: 41
    nsecs:         0
  frame_id: "map"
pose: 
  position: 
    x: 0.00307941436768
    y: -2.00733661652
    z: 0.0
  orientation: 
    x: 0.0
    y: 0.0
    z: -0.681625807136
    w: 0.731700935524
---
header: 
  seq: 133
  stamp: 
    secs: 41
    nsecs: 100000000
  frame_id: "map"
pose: 
  position: 
    x: 0.00306510925293
    y: -2.0078868866
    z: 0.0
  orientation: 
    x: 0.0
    y: 0.0
    z: -0.681490246938
    w: 0.731827194991
---
header: 
  seq: 134
  stamp: 
    secs: 41
    nsecs: 200000000
  frame_id: "map"
pose: 
  position: 
    x: 0.0130214691162
    y: -2.06158447266
    z: 0.0
  orientation: 
    x: 0.0
    y: 0.0
    z: -0.681659475476
    w: 0.731669569883
---
header: 
  seq: 135
  stamp: 
    secs: 41
    nsecs: 300000000
  frame_id: "map"
pose: 
  position: 
    x: 0.0151567459106
    y: -2.10578632355
    z: 0.0
  orientation: 
    x: 0.0
    y: 0.0
    z: -0.681695061168
    w: 0.73163641488
---
header: 
  seq: 136
  stamp: 
    secs: 41
    nsecs: 400000000
  frame_id: "map"
pose: 
  position: 
    x: 0.0189790725708
    y: -2.15960597992
    z: 0.0
  orientation: 
    x: 0.0
    y: 0.0
    z: -0.683306758375
    w: 0.730131408693
---
header: 
  seq: 137
  stamp: 
    secs: 41
    nsecs: 500000000
  frame_id: "map"
pose: 
  position: 
    x: 0.0190982818604
    y: -2.20572757721
    z: 0.0
  orientation: 
    x: 0.0
    y: 0.0
    z: -0.681391309871
    w: 0.731919314427
---
header: 
  seq: 138
  stamp: 
    secs: 41
    nsecs: 600000000
  frame_id: "map"
pose: 
  position: 
    x: 0.0185413360596
    y: -2.20543575287
    z: 0.0
  orientation: 
    x: 0.0
    y: 0.0
    z: -0.681094947672
    w: 0.732195105321
---
header: 
  seq: 139
  stamp: 
    secs: 41
    nsecs: 700000000
  frame_id: "map"
pose: 
  position: 
    x: 0.0224170684814
    y: -2.25964069366
    z: 0.0
  orientation: 
    x: 0.0
    y: 0.0
    z: -0.681955450497
    w: 0.731393713083
---
header: 
  seq: 140
  stamp: 
    secs: 41
    nsecs: 800000000
  frame_id: "map"
pose: 
  position: 
    x: 0.0314331054688
    y: -2.30466747284
    z: 0.0
  orientation: 
    x: 0.0
    y: 0.0
    z: -0.683068758975
    w: 0.730354072018
---
header: 
  seq: 141
  stamp: 
    secs: 41
    nsecs: 900000000
  frame_id: "map"
pose: 
  position: 
    x: 0.0328722000122
    y: -2.35721206665
    z: 0.0
  orientation: 
    x: 0.0
    y: 0.0
    z: -0.682616064048
    w: 0.730777195254
---
header: 
  seq: 142
  stamp: 
    secs: 42
    nsecs:         0
  frame_id: "map"
pose: 
  position: 
    x: 0.0396575927734
    y: -2.40420246124
    z: 0.0
  orientation: 
    x: 0.0
    y: 0.0
    z: -0.68246464278
    w: 0.730918607887
---
header: 
  seq: 143
  stamp: 
    secs: 42
    nsecs: 100000000
  frame_id: "map"
pose: 
  position: 
    x: 0.0396575927734
    y: -2.40420246124
    z: 0.0
  orientation: 
    x: 0.0
    y: 0.0
    z: -0.682464817045
    w: 0.730918445174
---
header: 
  seq: 144
  stamp: 
    secs: 42
    nsecs: 200000000
  frame_id: "map"
pose: 
  position: 
    x: 0.0427188873291
    y: -2.45126247406
    z: 0.0
  orientation: 
    x: 0.0
    y: 0.0
    z: -0.682661711202
    w: 0.73073455376
---
header: 
  seq: 145
  stamp: 
    secs: 42
    nsecs: 300000000
  frame_id: "map"
pose: 
  position: 
    x: 0.0429029464722
    y: -2.5051240921
    z: 0.0
  orientation: 
    x: 0.0
    y: 0.0
    z: -0.681901391501
    w: 0.731444114249
---
header: 
  seq: 146
  stamp: 
    secs: 42
    nsecs: 400000000
  frame_id: "map"
pose: 
  position: 
    x: 0.0429029464722
    y: -2.50512504578
    z: 0.0
  orientation: 
    x: 0.0
    y: 0.0
    z: -0.68190191467
    w: 0.731443626515
---
header: 
  seq: 147
  stamp: 
    secs: 42
    nsecs: 500000000
  frame_id: "map"
pose: 
  position: 
    x: 0.0436935424805
    y: -2.55317497253
    z: 0.0
  orientation: 
    x: 0.0
    y: 0.0
    z: -0.681978642408
    w: 0.731372088133
---
header: 
  seq: 148
  stamp: 
    secs: 42
    nsecs: 600000000
  frame_id: "map"
pose: 
  position: 
    x: 0.0605592727661
    y: -2.60743427277
    z: 0.0
  orientation: 
    x: 0.0
    y: 0.0
    z: -0.683022439026
    w: 0.73039739032
---
header: 
  seq: 149
  stamp: 
    secs: 42
    nsecs: 700000000
  frame_id: "map"
pose: 
  position: 
    x: 0.0605592727661
    y: -2.60743427277
    z: 0.0
  orientation: 
    x: 0.0
    y: 0.0
    z: -0.683022439026
    w: 0.73039739032
---
header: 
  seq: 150
  stamp: 
    secs: 42
    nsecs: 800000000
  frame_id: "map"
pose: 
  position: 
    x: 0.0601396560669
    y: -2.65525817871
    z: 0.0
  orientation: 
    x: 0.0
    y: 0.0
    z: -0.683394314138
    w: 0.73004945819
---
header: 
  seq: 151
  stamp: 
    secs: 42
    nsecs: 900000000
  frame_id: "map"
pose: 
  position: 
    x: 0.060694694519
    y: -2.70841217041
    z: 0.0
  orientation: 
    x: 0.0
    y: 0.0
    z: -0.68191133166
    w: 0.731434847238
---
header: 
  seq: 152
  stamp: 
    secs: 43
    nsecs:         0
  frame_id: "map"
pose: 
  position: 
    x: 0.0610523223877
    y: -2.7564868927
    z: 0.0
  orientation: 
    x: 0.0
    y: 0.0
    z: -0.682161538033
    w: 0.731201501659
---
header: 
  seq: 153
  stamp: 
    secs: 43
    nsecs: 100000000
  frame_id: "map"
pose: 
  position: 
    x: 0.0620098114014
    y: -2.80573654175
    z: 0.0
  orientation: 
    x: 0.0
    y: 0.0
    z: -0.681577133772
    w: 0.731746274824
---
header: 
  seq: 154
  stamp: 
    secs: 43
    nsecs: 200000000
  frame_id: "map"
pose: 
  position: 
    x: 0.0629577636719
    y: -2.85535907745
    z: 0.0
  orientation: 
    x: 0.0
    y: 0.0
    z: -0.682174264167
    w: 0.731189628829
---
header: 
  seq: 155
  stamp: 
    secs: 43
    nsecs: 300000000
  frame_id: "map"
pose: 
  position: 
    x: 0.0768604278564
    y: -2.90912723541
    z: 0.0
  orientation: 
    x: 0.0
    y: 0.0
    z: -0.682915857887
    w: 0.730497043831
---
header: 
  seq: 156
  stamp: 
    secs: 43
    nsecs: 400000000
  frame_id: "map"
pose: 
  position: 
    x: 0.0768604278564
    y: -2.90912723541
    z: 0.0
  orientation: 
    x: 0.0
    y: 0.0
    z: -0.682915857887
    w: 0.730497043831
---
header: 
  seq: 157
  stamp: 
    secs: 43
    nsecs: 500000000
  frame_id: "map"
pose: 
  position: 
    x: 0.0771617889404
    y: -2.95692920685
    z: 0.0
  orientation: 
    x: 0.0
    y: 0.0
    z: -0.683307454682
    w: 0.73013075704
---
header: 
  seq: 158
  stamp: 
    secs: 43
    nsecs: 600000000
  frame_id: "map"
pose: 
  position: 
    x: 0.0779209136963
    y: -3.00752544403
    z: 0.0
  orientation: 
    x: 0.0
    y: 0.0
    z: -0.683229116217
    w: 0.730204063774
---
header: 
  seq: 159
  stamp: 
    secs: 43
    nsecs: 700000000
  frame_id: "map"
pose: 
  position: 
    x: 0.0779209136963
    y: -3.00752544403
    z: 0.0
  orientation: 
    x: 0.0
    y: 0.0
    z: -0.683229116217
    w: 0.730204063774
---
header: 
  seq: 160
  stamp: 
    secs: 43
    nsecs: 800000000
  frame_id: "map"
pose: 
  position: 
    x: 0.080530166626
    y: -3.0564622879
    z: 0.0
  orientation: 
    x: 0.0
    y: 0.0
    z: -0.682338813646
    w: 0.731036075302
---
header: 
  seq: 161
  stamp: 
    secs: 43
    nsecs: 900000000
  frame_id: "map"
pose: 
  position: 
    x: 0.0800580978394
    y: -3.10552978516
    z: 0.0
  orientation: 
    x: 0.0
    y: 0.0
    z: -0.682499146406
    w: 0.730886390047
---
header: 
  seq: 162
  stamp: 
    secs: 44
    nsecs:         0
  frame_id: "map"
pose: 
  position: 
    x: 0.0955104827881
    y: -3.15831661224
    z: 0.0
  orientation: 
    x: 0.0
    y: 0.0
    z: -0.683017388941
    w: 0.730402112815
---
header: 
  seq: 163
  stamp: 
    secs: 44
    nsecs: 100000000
  frame_id: "map"
pose: 
  position: 
    x: 0.0937776565552
    y: -3.20603179932
    z: 0.0
  orientation: 
    x: 0.0
    y: 0.0
    z: -0.682203376602
    w: 0.731162466866
---
header: 
  seq: 164
  stamp: 
    secs: 44
    nsecs: 200000000
  frame_id: "map"
pose: 
  position: 
    x: 0.0937776565552
    y: -3.20603084564
    z: 0.0
  orientation: 
    x: 0.0
    y: 0.0
    z: -0.682203550925
    w: 0.731162304216
---
header: 
  seq: 165
  stamp: 
    secs: 44
    nsecs: 300000000
  frame_id: "map"
pose: 
  position: 
    x: 0.0951385498047
    y: -3.25627231598
    z: 0.0
  orientation: 
    x: 0.0
    y: 0.0
    z: -0.682011423789
    w: 0.731341519279
---
header: 
  seq: 166
  stamp: 
    secs: 44
    nsecs: 400000000
  frame_id: "map"
pose: 
  position: 
    x: 0.096453666687
    y: -3.30798625946
    z: 0.0
  orientation: 
    x: 0.0
    y: 0.0
    z: -0.68147035583
    w: 0.731845717433
---
header: 
  seq: 167
  stamp: 
    secs: 44
    nsecs: 500000000
  frame_id: "map"
pose: 
  position: 
    x: 0.0964250564575
    y: -3.30812358856
    z: 0.0
  orientation: 
    x: 0.0
    y: 0.0
    z: -0.68152898081
    w: 0.73179112342
---
header: 
  seq: 168
  stamp: 
    secs: 44
    nsecs: 600000000
  frame_id: "map"
pose: 
  position: 
    x: 0.0964250564575
    y: -3.30812358856
    z: 0.0
  orientation: 
    x: 0.0
    y: 0.0
    z: -0.68152898081
    w: 0.73179112342
---
header: 
  seq: 169
  stamp: 
    secs: 44
    nsecs: 700000000
  frame_id: "map"
pose: 
  position: 
    x: 0.0974807739258
    y: -3.35676765442
    z: 0.0
  orientation: 
    x: 0.0
    y: 0.0
    z: -0.68140963249
    w: 0.731902256282
---
header: 
  seq: 170
  stamp: 
    secs: 44
    nsecs: 800000000
  frame_id: "map"
pose: 
  position: 
    x: 0.0983552932739
    y: -3.40655231476
    z: 0.0
  orientation: 
    x: 0.0
    y: 0.0
    z: -0.681711806818
    w: 0.731620811927
---
header: 
  seq: 171
  stamp: 
    secs: 44
    nsecs: 900000000
  frame_id: "map"
pose: 
  position: 
    x: 0.104960441589
    y: -3.45641136169
    z: 0.0
  orientation: 
    x: 0.0
    y: 0.0
    z: -0.644502468185
    w: 0.764602228942
---
header: 
  seq: 172
  stamp: 
    secs: 45
    nsecs:         0
  frame_id: "map"
pose: 
  position: 
    x: 0.1211977005
    y: -3.50664329529
    z: 0.0
  orientation: 
    x: 0.0
    y: 0.0
    z: -0.60602881213
    w: 0.795442693642
---
header: 
  seq: 173
  stamp: 
    secs: 45
    nsecs: 100000000
  frame_id: "map"
pose: 
  position: 
    x: 0.1211977005
    y: -3.50664329529
    z: 0.0
  orientation: 
    x: 0.0
    y: 0.0
    z: -0.60602881213
    w: 0.795442693642
---
header: 
  seq: 174
  stamp: 
    secs: 45
    nsecs: 200000000
  frame_id: "map"
pose: 
  position: 
    x: 0.129216194153
    y: -3.55522918701
    z: 0.0
  orientation: 
    x: 0.0
    y: 0.0
    z: -0.565429386711
    w: 0.824796707464
---
header: 
  seq: 175
  stamp: 
    secs: 45
    nsecs: 300000000
  frame_id: "map"
pose: 
  position: 
    x: 0.150097846985
    y: -3.60191440582
    z: 0.0
  orientation: 
    x: 0.0
    y: 0.0
    z: -0.523593980502
    w: 0.851967924034
---
header: 
  seq: 176
  stamp: 
    secs: 45
    nsecs: 400000000
  frame_id: "map"
pose: 
  position: 
    x: 0.150097846985
    y: -3.60191440582
    z: 0.0
  orientation: 
    x: 0.0
    y: 0.0
    z: -0.523593980502
    w: 0.851967924034
---
header: 
  seq: 177
  stamp: 
    secs: 45
    nsecs: 500000000
  frame_id: "map"
pose: 
  position: 
    x: 0.150097846985
    y: -3.60191440582
    z: 0.0
  orientation: 
    x: 0.0
    y: 0.0
    z: -0.523593980502
    w: 0.851967924034
---
header: 
  seq: 178
  stamp: 
    secs: 45
    nsecs: 600000000
  frame_id: "map"
pose: 
  position: 
    x: 0.174598693848
    y: -3.6471862793
    z: 0.0
  orientation: 
    x: 0.0
    y: 0.0
    z: -0.480632719019
    w: 0.876921997334
---
header: 
  seq: 179
  stamp: 
    secs: 45
    nsecs: 700000000
  frame_id: "map"
pose: 
  position: 
    x: 0.199954032898
    y: -3.68325996399
    z: 0.0
  orientation: 
    x: 0.0
    y: 0.0
    z: -0.435225245259
    w: 0.900321601368
---
header: 
  seq: 180
  stamp: 
    secs: 45
    nsecs: 800000000
  frame_id: "map"
pose: 
  position: 
    x: 0.237371444702
    y: -3.7254743576
    z: 0.0
  orientation: 
    x: 0.0
    y: 0.0
    z: -0.435979169896
    w: 0.899956756415
---
header: 
  seq: 181
  stamp: 
    secs: 45
    nsecs: 900000000
  frame_id: "map"
pose: 
  position: 
    x: 0.260719299316
    y: -3.76401996613
    z: 0.0
  orientation: 
    x: 0.0
    y: 0.0
    z: -0.435865660797
    w: 0.900011736445
---
header: 
  seq: 182
  stamp: 
    secs: 46
    nsecs:         0
  frame_id: "map"
pose: 
  position: 
    x: 0.260719299316
    y: -3.76401996613
    z: 0.0
  orientation: 
    x: 0.0
    y: 0.0
    z: -0.435865660797
    w: 0.900011736445
---
header: 
  seq: 183
  stamp: 
    secs: 46
    nsecs: 100000000
  frame_id: "map"
pose: 
  position: 
    x: 0.298257827759
    y: -3.80242919922
    z: 0.0
  orientation: 
    x: 0.0
    y: 0.0
    z: -0.435900422354
    w: 0.899994900981
---
header: 
  seq: 184
  stamp: 
    secs: 46
    nsecs: 200000000
  frame_id: "map"
pose: 
  position: 
    x: 0.321332931519
    y: -3.84348011017
    z: 0.0
  orientation: 
    x: 0.0
    y: 0.0
    z: -0.435372706304
    w: 0.900250302197
---
header: 
  seq: 185
  stamp: 
    secs: 46
    nsecs: 300000000
  frame_id: "map"
pose: 
  position: 
    x: 0.354591369629
    y: -3.88262271881
    z: 0.0
  orientation: 
    x: 0.0
    y: 0.0
    z: -0.435697208242
    w: 0.900093296681
---
header: 
  seq: 186
  stamp: 
    secs: 46
    nsecs: 400000000
  frame_id: "map"
pose: 
  position: 
    x: 0.383318901062
    y: -3.92203903198
    z: 0.0
  orientation: 
    x: 0.0
    y: 0.0
    z: -0.435824246489
    w: 0.900031791757
---
header: 
  seq: 187
  stamp: 
    secs: 46
    nsecs: 500000000
  frame_id: "map"
pose: 
  position: 
    x: 0.383318901062
    y: -3.92203903198
    z: 0.0
  orientation: 
    x: 0.0
    y: 0.0
    z: -0.435824246489
    w: 0.900031791757
---
header: 
  seq: 188
  stamp: 
    secs: 46
    nsecs: 600000000
  frame_id: "map"
pose: 
  position: 
    x: 0.419370651245
    y: -3.96069431305
    z: 0.0
  orientation: 
    x: 0.0
    y: 0.0
    z: -0.436079155152
    w: 0.899908312242
---
header: 
  seq: 189
  stamp: 
    secs: 46
    nsecs: 700000000
  frame_id: "map"
pose: 
  position: 
    x: 0.447229385376
    y: -4.00193786621
    z: 0.0
  orientation: 
    x: 0.0
    y: 0.0
    z: -0.436113483613
    w: 0.899891676487
---
header: 
  seq: 190
  stamp: 
    secs: 46
    nsecs: 800000000
  frame_id: "map"
pose: 
  position: 
    x: 0.447883605957
    y: -4.00047683716
    z: 0.0
  orientation: 
    x: 0.0
    y: 0.0
    z: -0.436232555541
    w: 0.899833961065
---
header: 
  seq: 191
  stamp: 
    secs: 46
    nsecs: 900000000
  frame_id: "map"
pose: 
  position: 
    x: 0.482546806335
    y: -4.03906345367
    z: 0.0
  orientation: 
    x: 0.0
    y: 0.0
    z: -0.390626460367
    w: 0.920549275412
---
header: 
  seq: 192
  stamp: 
    secs: 47
    nsecs:         0
  frame_id: "map"
pose: 
  position: 
    x: 0.512334823608
    y: -4.07645988464
    z: 0.0
  orientation: 
    x: 0.0
    y: 0.0
    z: -0.343446734796
    w: 0.939172156933
---
header: 
  seq: 193
  stamp: 
    secs: 47
    nsecs: 100000000
  frame_id: "map"
pose: 
  position: 
    x: 0.554679870605
    y: -4.11323642731
    z: 0.0
  orientation: 
    x: 0.0
    y: 0.0
    z: -0.29570023649
    w: 0.955280780786
---
header: 
  seq: 194
  stamp: 
    secs: 47
    nsecs: 200000000
  frame_id: "map"
pose: 
  position: 
    x: 0.596835136414
    y: -4.13457965851
    z: 0.0
  orientation: 
    x: 0.0
    y: 0.0
    z: -0.248649025196
    w: 0.96859365178
---
header: 
  seq: 195
  stamp: 
    secs: 47
    nsecs: 300000000
  frame_id: "map"
pose: 
  position: 
    x: 0.59631061554
    y: -4.13428020477
    z: 0.0
  orientation: 
    x: 0.0
    y: 0.0
    z: -0.248532865255
    w: 0.968623463936
---
header: 
  seq: 196
  stamp: 
    secs: 47
    nsecs: 400000000
  frame_id: "map"
pose: 
  position: 
    x: 0.635894775391
    y: -4.16459655762
    z: 0.0
  orientation: 
    x: 0.0
    y: 0.0
    z: -0.198986130724
    w: 0.980002306007
---
header: 
  seq: 197
  stamp: 
    secs: 47
    nsecs: 500000000
  frame_id: "map"
pose: 
  position: 
    x: 0.68054485321
    y: -4.18290805817
    z: 0.0
  orientation: 
    x: 0.0
    y: 0.0
    z: -0.149864580639
    w: 0.988706532531
---
header: 
  seq: 198
  stamp: 
    secs: 47
    nsecs: 600000000
  frame_id: "map"
pose: 
  position: 
    x: 0.68054485321
    y: -4.18290805817
    z: 0.0
  orientation: 
    x: 0.0
    y: 0.0
    z: -0.149864580639
    w: 0.988706532531
---
header: 
  seq: 199
  stamp: 
    secs: 47
    nsecs: 700000000
  frame_id: "map"
pose: 
  position: 
    x: 0.733691215515
    y: -4.19657897949
    z: 0.0
  orientation: 
    x: 0.0
    y: 0.0
    z: -0.099771316229
    w: 0.995010394146
---
header: 
  seq: 200
  stamp: 
    secs: 47
    nsecs: 800000000
  frame_id: "map"
pose: 
  position: 
    x: 0.774566650391
    y: -4.2112455368
    z: 0.0
  orientation: 
    x: 0.0
    y: 0.0
    z: -0.0498728339933
    w: 0.998755575919
---
header: 
  seq: 201
  stamp: 
    secs: 47
    nsecs: 900000000
  frame_id: "map"
pose: 
  position: 
    x: 0.774702072144
    y: -4.21108818054
    z: 0.0
  orientation: 
    x: 0.0
    y: 0.0
    z: -0.0498190183748
    w: 0.998758261747
---
header: 
  seq: 202
  stamp: 
    secs: 48
    nsecs:         0
  frame_id: "map"
pose: 
  position: 
    x: 0.831959724426
    y: -4.21355056763
    z: 0.0
  orientation: 
    x: 0.0
    y: 0.0
    z: -0.0489303255055
    w: 0.998802194254
---
header: 
  seq: 203
  stamp: 
    secs: 48
    nsecs: 100000000
  frame_id: "map"
pose: 
  position: 
    x: 0.873127937317
    y: -4.2133026123
    z: 0.0
  orientation: 
    x: 0.0
    y: 0.0
    z: -0.0499221251628
    w: 0.998753113346
---
header: 
  seq: 204
  stamp: 
    secs: 48
    nsecs: 200000000
  frame_id: "map"
pose: 
  position: 
    x: 0.873087882996
    y: -4.21333312988
    z: 0.0
  orientation: 
    x: 0.0
    y: 0.0
    z: -0.0499235538905
    w: 0.998753041931
---
header: 
  seq: 205
  stamp: 
    secs: 48
    nsecs: 300000000
  frame_id: "map"
pose: 
  position: 
    x: 0.929745674133
    y: -4.21465778351
    z: 0.0
  orientation: 
    x: 0.0
    y: 0.0
    z: -0.0506026641907
    w: 0.998718864534
---
header: 
  seq: 206
  stamp: 
    secs: 48
    nsecs: 400000000
  frame_id: "map"
pose: 
  position: 
    x: 0.976132392883
    y: -4.23404979706
    z: 0.0
  orientation: 
    x: 0.0
    y: 0.0
    z: -0.0480334970244
    w: 0.998845725407
---
header: 
  seq: 207
  stamp: 
    secs: 48
    nsecs: 500000000
  frame_id: "map"
pose: 
  position: 
    x: 1.03190898895
    y: -4.23439979553
    z: 0.0
  orientation: 
    x: 0.0
    y: 0.0
    z: -0.0494951691267
    w: 0.998774363024
---
header: 
  seq: 208
  stamp: 
    secs: 48
    nsecs: 600000000
  frame_id: "map"
pose: 
  position: 
    x: 1.07647514343
    y: -4.23653030396
    z: 0.0
  orientation: 
    x: 0.0
    y: 0.0
    z: -0.0493606272821
    w: 0.998781021283
---
header: 
  seq: 209
  stamp: 
    secs: 48
    nsecs: 700000000
  frame_id: "map"
pose: 
  position: 
    x: 1.13625144958
    y: -4.23949813843
    z: 0.0
  orientation: 
    x: 0.0
    y: 0.0
    z: -0.101397861184
    w: 0.994845954783
---
header: 
  seq: 210
  stamp: 
    secs: 48
    nsecs: 800000000
  frame_id: "map"
pose: 
  position: 
    x: 1.17865562439
    y: -4.24697399139
    z: 0.0
  orientation: 
    x: 0.0
    y: 0.0
    z: -0.150537307916
    w: 0.988604328802
---
header: 
  seq: 211
  stamp: 
    secs: 48
    nsecs: 900000000
  frame_id: "map"
pose: 
  position: 
    x: 1.17865467072
    y: -4.24697399139
    z: 0.0
  orientation: 
    x: 0.0
    y: 0.0
    z: -0.150537307916
    w: 0.988604328802
---
header: 
  seq: 212
  stamp: 
    secs: 49
    nsecs:         0
  frame_id: "map"
pose: 
  position: 
    x: 1.23203086853
    y: -4.26656723022
    z: 0.0
  orientation: 
    x: 0.0
    y: 0.0
    z: -0.199446167122
    w: 0.979908784745
---
header: 
  seq: 213
  stamp: 
    secs: 49
    nsecs: 100000000
  frame_id: "map"
pose: 
  position: 
    x: 1.27342796326
    y: -4.29110908508
    z: 0.0
  orientation: 
    x: 0.0
    y: 0.0
    z: -0.24700143758
    w: 0.969015113315
---
header: 
  seq: 214
  stamp: 
    secs: 49
    nsecs: 200000000
  frame_id: "map"
pose: 
  position: 
    x: 1.31437683105
    y: -4.3124704361
    z: 0.0
  orientation: 
    x: 0.0
    y: 0.0
    z: -0.247275892742
    w: 0.968945113445
---
header: 
  seq: 215
  stamp: 
    secs: 49
    nsecs: 300000000
  frame_id: "map"
pose: 
  position: 
    x: 1.35618114471
    y: -4.33547687531
    z: 0.0
  orientation: 
    x: 0.0
    y: 0.0
    z: -0.247196653936
    w: 0.968965331827
---
header: 
  seq: 216
  stamp: 
    secs: 49
    nsecs: 400000000
  frame_id: "map"
pose: 
  position: 
    x: 1.35618019104
    y: -4.33547973633
    z: 0.0
  orientation: 
    x: 0.0
    y: 0.0
    z: -0.247195267819
    w: 0.968965685444
---
header: 
  seq: 217
  stamp: 
    secs: 49
    nsecs: 500000000
  frame_id: "map"
pose: 
  position: 
    x: 1.4146528244
    y: -4.35277748108
    z: 0.0
  orientation: 
    x: 0.0
    y: 0.0
    z: -0.245509376977
    w: 0.969394215898
---
header: 
  seq: 218
  stamp: 
    secs: 49
    nsecs: 600000000
  frame_id: "map"
pose: 
  position: 
    x: 1.4556760788
    y: -4.3908367157
    z: 0.0
  orientation: 
    x: 0.0
    y: 0.0
    z: -0.246805287027
    w: 0.969065090846
---
header: 
  seq: 219
  stamp: 
    secs: 49
    nsecs: 700000000
  frame_id: "map"
pose: 
  position: 
    x: 1.49683380127
    y: -4.41082954407
    z: 0.0
  orientation: 
    x: 0.0
    y: 0.0
    z: -0.246737821837
    w: 0.969082270643
---
header: 
  seq: 220
  stamp: 
    secs: 49
    nsecs: 800000000
  frame_id: "map"
pose: 
  position: 
    x: 1.53638744354
    y: -4.43056583405
    z: 0.0
  orientation: 
    x: 0.0
    y: 0.0
    z: -0.246812911442
    w: 0.969063148998
---
header: 
  seq: 221
  stamp: 
    secs: 49
    nsecs: 900000000
  frame_id: "map"
pose: 
  position: 
    x: 1.57725715637
    y: -4.45067119598
    z: 0.0
  orientation: 
    x: 0.0
    y: 0.0
    z: -0.246941600027
    w: 0.969030363908
---
header: 
  seq: 222
  stamp: 
    secs: 50
    nsecs:         0
  frame_id: "map"
pose: 
  position: 
    x: 1.63735675812
    y: -4.47171115875
    z: 0.0
  orientation: 
    x: 0.0
    y: 0.0
    z: -0.246482275039
    w: 0.969147299481
---
header: 
  seq: 223
  stamp: 
    secs: 50
    nsecs: 100000000
  frame_id: "map"
pose: 
  position: 
    x: 1.67966556549
    y: -4.51128101349
    z: 0.0
  orientation: 
    x: 0.0
    y: 0.0
    z: -0.246873213099
    w: 0.969047788633
---
header: 
  seq: 224
  stamp: 
    secs: 50
    nsecs: 200000000
  frame_id: "map"
pose: 
  position: 
    x: 1.72040271759
    y: -4.53173923492
    z: 0.0
  orientation: 
    x: 0.0
    y: 0.0
    z: -0.247119723717
    w: 0.968984954553
---
header: 
  seq: 225
  stamp: 
    secs: 50
    nsecs: 300000000
  frame_id: "map"
pose: 
  position: 
    x: 1.7202835083
    y: -4.53177833557
    z: 0.0
  orientation: 
    x: 0.0
    y: 0.0
    z: -0.247010909848
    w: 0.96901269879
---
header: 
  seq: 226
  stamp: 
    secs: 50
    nsecs: 400000000
  frame_id: "map"
pose: 
  position: 
    x: 1.76103019714
    y: -4.54780864716
    z: 0.0
  orientation: 
    x: 0.0
    y: 0.0
    z: -0.198020121997
    w: 0.980197955152
---
header: 
  seq: 227
  stamp: 
    secs: 50
    nsecs: 500000000
  frame_id: "map"
pose: 
  position: 
    x: 1.80406665802
    y: -4.5642824173
    z: 0.0
  orientation: 
    x: 0.0
    y: 0.0
    z: -0.149101019493
    w: 0.988821968802
---
header: 
  seq: 228
  stamp: 
    secs: 50
    nsecs: 600000000
  frame_id: "map"
pose: 
  position: 
    x: 1.80406665802
    y: -4.56428050995
    z: 0.0
  orientation: 
    x: 0.0
    y: 0.0
    z: -0.149101255247
    w: 0.988821933254
---
header: 
  seq: 229
  stamp: 
    secs: 50
    nsecs: 700000000
  frame_id: "map"
pose: 
  position: 
    x: 1.8653345108
    y: -4.58476257324
    z: 0.0
  orientation: 
    x: 0.0
    y: 0.0
    z: -0.148833905308
    w: 0.988862209123
---
header: 
  seq: 230
  stamp: 
    secs: 50
    nsecs: 800000000
  frame_id: "map"
pose: 
  position: 
    x: 1.90581798553
    y: -4.60590744019
    z: 0.0
  orientation: 
    x: 0.0
    y: 0.0
    z: -0.147911299573
    w: 0.989000630666
---
header: 
  seq: 231
  stamp: 
    secs: 50
    nsecs: 900000000
  frame_id: "map"
pose: 
  position: 
    x: 1.95517539978
    y: -4.60702133179
    z: 0.0
  orientation: 
    x: 0.0
    y: 0.0
    z: -0.149667746455
    w: 0.988736347906
---
header: 
  seq: 232
  stamp: 
    secs: 51
    nsecs:         0
  frame_id: "map"
pose: 
  position: 
    x: 2.00760173798
    y: -4.62574195862
    z: 0.0
  orientation: 
    x: 0.0
    y: 0.0
    z: -0.148109129561
    w: 0.988971023711
---
header: 
  seq: 233
  stamp: 
    secs: 51
    nsecs: 100000000
  frame_id: "map"
pose: 
  position: 
    x: 2.00955963135
    y: -4.6253452301
    z: 0.0
  orientation: 
    x: 0.0
    y: 0.0
    z: -0.148400322634
    w: 0.98892737056
---
header: 
  seq: 234
  stamp: 
    secs: 51
    nsecs: 200000000
  frame_id: "map"
pose: 
  position: 
    x: 2.04977989197
    y: -4.64499378204
    z: 0.0
  orientation: 
    x: 0.0
    y: 0.0
    z: -0.148923730444
    w: 0.988848685346
---
header: 
  seq: 235
  stamp: 
    secs: 51
    nsecs: 300000000
  frame_id: "map"
pose: 
  position: 
    x: 2.11098480225
    y: -4.66757297516
    z: 0.0
  orientation: 
    x: 0.0
    y: 0.0
    z: -0.147862253797
    w: 0.989007964529
---
header: 
  seq: 236
  stamp: 
    secs: 51
    nsecs: 400000000
  frame_id: "map"
pose: 
  position: 
    x: 2.14819812775
    y: -4.67109966278
    z: 0.0
  orientation: 
    x: 0.0
    y: 0.0
    z: -0.146353211709
    w: 0.989232398086
---
header: 
  seq: 237
  stamp: 
    secs: 51
    nsecs: 500000000
  frame_id: "map"
pose: 
  position: 
    x: 2.18949222565
    y: -4.68616485596
    z: 0.0
  orientation: 
    x: 0.0
    y: 0.0
    z: -0.148211932794
    w: 0.98895562235
---
header: 
  seq: 238
  stamp: 
    secs: 51
    nsecs: 600000000
  frame_id: "map"
pose: 
  position: 
    x: 2.18974590302
    y: -4.68632507324
    z: 0.0
  orientation: 
    x: 0.0
    y: 0.0
    z: -0.148157937718
    w: 0.988963712929
---
header: 
  seq: 239
  stamp: 
    secs: 51
    nsecs: 700000000
  frame_id: "map"
pose: 
  position: 
    x: 2.24976825714
    y: -4.70551967621
    z: 0.0
  orientation: 
    x: 0.0
    y: 0.0
    z: -0.14817656489
    w: 0.988960922189
---
header: 
  seq: 240
  stamp: 
    secs: 51
    nsecs: 800000000
  frame_id: "map"
pose: 
  position: 
    x: 2.29372501373
    y: -4.72378253937
    z: 0.0
  orientation: 
    x: 0.0
    y: 0.0
    z: -0.149142511983
    w: 0.988815711404
---
header: 
  seq: 241
  stamp: 
    secs: 51
    nsecs: 900000000
  frame_id: "map"
pose: 
  position: 
    x: 2.35480594635
    y: -4.73888397217
    z: 0.0
  orientation: 
    x: 0.0
    y: 0.0
    z: -0.10056908508
    w: 0.994930077506
---
header: 
  seq: 242
  stamp: 
    secs: 52
    nsecs:         0
  frame_id: "map"
pose: 
  position: 
    x: 2.39270114899
    y: -4.73245429993
    z: 0.0
  orientation: 
    x: 0.0
    y: 0.0
    z: -0.0508738731795
    w: 0.998705086113
---
header: 
  seq: 243
  stamp: 
    secs: 52
    nsecs: 100000000
  frame_id: "map"
pose: 
  position: 
    x: 2.39466667175
    y: -4.73290348053
    z: 0.0
  orientation: 
    x: 0.0
    y: 0.0
    z: -0.0511284109515
    w: 0.998692087479
---
header: 
  seq: 244
  stamp: 
    secs: 52
    nsecs: 200000000
  frame_id: "map"
pose: 
  position: 
    x: 2.43421649933
    y: -4.75339889526
    z: 0.0
  orientation: 
    x: 0.0
    y: 0.0
