header: 
  seq: 20
  stamp: 
    secs: 1553256317
    nsecs: 937314783
  frame_id: "map"
pose: 
  position: 
    x: 0.00198173522949
    y: -0.000110626220703
    z: 0.0
  orientation: 
    x: 0.0
    y: 0.0
    z: -0.000731380707572
    w: 0.999999732541
---
header: 
  seq: 21
  stamp: 
    secs: 1553256318
    nsecs:  37935879
  frame_id: "map"
pose: 
  position: 
    x: 0.00290679931641
    y: -0.000106811523438
    z: 0.0
  orientation: 
    x: 0.0
    y: 0.0
    z: -0.000515135098749
    w: 0.999999867318
---
header: 
  seq: 22
  stamp: 
    secs: 1553256318
    nsecs: 138437486
  frame_id: "map"
pose: 
  position: 
    x: 0.00278091430664
    y: -0.000495910644531
    z: 0.0
  orientation: 
    x: 0.0
    y: 0.0
    z: -0.00036087829302
    w: 0.999999934883
---
header: 
  seq: 23
  stamp: 
    secs: 1553256318
    nsecs: 238498991
  frame_id: "map"
pose: 
  position: 
    x: 0.00412178039551
    y: 0.000373840332031
    z: 0.0
  orientation: 
    x: 0.0
    y: 0.0
    z: -0.0108043554062
    w: 0.999941631249
---
header: 
  seq: 24
  stamp: 
    secs: 1553256318
    nsecs: 338431727
  frame_id: "map"
pose: 
  position: 
    x: 0.00136947631836
    y: 0.000524520874023
    z: 0.0
  orientation: 
    x: 0.0
    y: 0.0
    z: -0.0557725895905
    w: 0.998443497776
---
header: 
  seq: 25
  stamp: 
    secs: 1553256318
    nsecs: 438499857
  frame_id: "map"
pose: 
  position: 
    x: -0.000608444213867
    y: -0.00192832946777
    z: 0.0
  orientation: 
    x: 0.0
    y: 0.0
    z: -0.114096211499
    w: 0.993469704884
---
header: 
  seq: 26
  stamp: 
    secs: 1553256318
    nsecs: 539947587
  frame_id: "map"
pose: 
  position: 
    x: -0.00869941711426
    y: 0.00135040283203
    z: 0.0
  orientation: 
    x: 0.0
    y: 0.0
    z: -0.159255122707
    w: 0.987237461755
---
header: 
  seq: 27
  stamp: 
    secs: 1553256318
    nsecs: 640528107
  frame_id: "map"
pose: 
  position: 
    x: -0.00982475280762
    y: 0.0152778625488
    z: 0.0
  orientation: 
    x: 0.0
    y: 0.0
    z: -0.19296099887
    w: 0.98120642727
---
header: 
  seq: 28
  stamp: 
    secs: 1553256318
    nsecs: 741768090
  frame_id: "map"
pose: 
  position: 
    x: -0.0161590576172
    y: 0.026050567627
    z: 0.0
  orientation: 
    x: 0.0
    y: 0.0
    z: -0.202395752393
    w: 0.979303813642
---
header: 
  seq: 29
  stamp: 
    secs: 1553256318
    nsecs: 842579109
  frame_id: "map"
pose: 
  position: 
    x: -0.0155010223389
    y: 0.0241603851318
    z: 0.0
  orientation: 
    x: 0.0
    y: 0.0
    z: -0.203267969047
    w: 0.979123144839
---
header: 
  seq: 30
  stamp: 
    secs: 1553256318
    nsecs: 943968162
  frame_id: "map"
pose: 
  position: 
    x: -0.0205669403076
    y: 0.0250835418701
    z: 0.0
  orientation: 
    x: 0.0
    y: 0.0
    z: -0.193167327779
    w: 0.981165828736
---
header: 
  seq: 31
  stamp: 
    secs: 1553256319
    nsecs:  46122735
  frame_id: "map"
pose: 
  position: 
    x: -0.0175323486328
    y: 0.0202579498291
    z: 0.0
  orientation: 
    x: 0.0
    y: 0.0
    z: -0.119373511193
    w: 0.992849416994
---
header: 
  seq: 32
  stamp: 
    secs: 1553256319
    nsecs: 147296977
  frame_id: "map"
pose: 
  position: 
    x: -0.0102806091309
    y: 0.0145454406738
    z: 0.0
  orientation: 
    x: 0.0
    y: 0.0
    z: -0.0257908432112
    w: 0.999667360879
---
header: 
  seq: 33
  stamp: 
    secs: 1553256319
    nsecs: 248168368
  frame_id: "map"
pose: 
  position: 
    x: -0.00697326660156
    y: 0.0134296417236
    z: 0.0
  orientation: 
    x: 0.0
    y: 0.0
    z: 0.0736917492226
    w: 0.997281066749
---
header: 
  seq: 34
  stamp: 
    secs: 1553256319
    nsecs: 348341350
  frame_id: "map"
pose: 
  position: 
    x: -0.00588989257812
    y: 0.0140285491943
    z: 0.0
  orientation: 
    x: 0.0
    y: 0.0
    z: 0.173993562255
    w: 0.984746789938
---
header: 
  seq: 35
  stamp: 
    secs: 1553256319
    nsecs: 448271930
  frame_id: "map"
pose: 
  position: 
    x: -0.00419998168945
    y: 0.0167770385742
    z: 0.0
  orientation: 
    x: 0.0
    y: 0.0
    z: 0.275652537054
    w: 0.961257342659
---
header: 
  seq: 36
  stamp: 
    secs: 1553256319
    nsecs: 547233027
  frame_id: "map"
pose: 
  position: 
    x: -0.0026683807373
    y: 0.024133682251
    z: 0.0
  orientation: 
    x: 0.0
    y: 0.0
    z: 0.369688402551
    w: 0.929155791576
---
header: 
  seq: 37
  stamp: 
    secs: 1553256319
    nsecs: 647000213
  frame_id: "map"
pose: 
  position: 
    x: -0.00418663024902
    y: 0.035758972168
    z: 0.0
  orientation: 
    x: 0.0
    y: 0.0
    z: 0.43012818694
    w: 0.902767823308
---
header: 
  seq: 38
  stamp: 
    secs: 1553256319
    nsecs: 746498692
  frame_id: "map"
pose: 
  position: 
    x: -0.00941848754883
    y: 0.0404510498047
    z: 0.0
  orientation: 
    x: 0.0
    y: 0.0
    z: 0.498763070282
    w: 0.866738368669
---
header: 
  seq: 39
  stamp: 
    secs: 1553256319
    nsecs: 846277590
  frame_id: "map"
pose: 
  position: 
    x: -0.00590896606445
    y: 0.0461807250977
    z: 0.0
  orientation: 
    x: 0.0
    y: 0.0
    z: 0.575450990136
    w: 0.817836265979
---
header: 
  seq: 40
  stamp: 
    secs: 1553256319
    nsecs: 946403512
  frame_id: "map"
pose: 
  position: 
    x: -0.0103645324707
    y: 0.0511207580566
    z: 0.0
  orientation: 
    x: 0.0
    y: 0.0
    z: 0.650334085883
    w: 0.759648324383
---
header: 
  seq: 41
  stamp: 
    secs: 1553256320
    nsecs:  45930976
  frame_id: "map"
pose: 
  position: 
    x: -0.0118598937988
    y: 0.0551071166992
    z: 0.0
  orientation: 
    x: 0.0
    y: 0.0
    z: 0.72187908024
    w: 0.692019214699
---
header: 
  seq: 42
  stamp: 
    secs: 1553256320
    nsecs: 145811404
  frame_id: "map"
pose: 
  position: 
    x: -0.00145721435547
    y: 0.0639972686768
    z: 0.0
  orientation: 
    x: 0.0
    y: 0.0
    z: 0.78792523475
    w: 0.615770918803
---
header: 
  seq: 43
  stamp: 
    secs: 1553256320
    nsecs: 245571415
  frame_id: "map"
pose: 
  position: 
    x: -0.00281715393066
    y: 0.0647125244141
    z: 0.0
  orientation: 
    x: 0.0
    y: 0.0
    z: 0.84563933307
    w: 0.533754736152
---
header: 
  seq: 44
  stamp: 
    secs: 1553256320
    nsecs: 345549029
  frame_id: "map"
pose: 
  position: 
    x: -0.0144691467285
    y: 0.0621242523193
    z: 0.0
  orientation: 
    x: 0.0
    y: 0.0
    z: 0.895093682711
    w: 0.445878121431
---
header: 
  seq: 45
  stamp: 
    secs: 1553256320
    nsecs: 445209294
  frame_id: "map"
pose: 
  position: 
    x: -0.0187740325928
    y: 0.0598773956299
    z: 0.0
  orientation: 
    x: 0.0
    y: 0.0
    z: 0.936510707437
    w: 0.350638980799
---
header: 
  seq: 46
  stamp: 
    secs: 1553256320
    nsecs: 543656619
  frame_id: "map"
pose: 
  position: 
    x: -0.0352802276611
    y: 0.0801219940186
    z: 0.0
  orientation: 
    x: 0.0
    y: 0.0
    z: 0.961128132779
    w: 0.276102720706
---
header: 
  seq: 47
  stamp: 
    secs: 1553256320
    nsecs: 642090440
  frame_id: "map"
pose: 
  position: 
    x: -0.0367012023926
    y: 0.0867557525635
    z: 0.0
  orientation: 
    x: 0.0
    y: 0.0
    z: 0.961067778455
    w: 0.276312730824
---
header: 
  seq: 48
  stamp: 
    secs: 1553256320
    nsecs: 741835123
  frame_id: "map"
pose: 
  position: 
    x: -0.0367698669434
    y: 0.0863761901855
    z: 0.0
  orientation: 
    x: 0.0
    y: 0.0
    z: 0.961038786808
    w: 0.276413549326
---
header: 
  seq: 49
  stamp: 
    secs: 1553256320
    nsecs: 841081272
  frame_id: "map"
pose: 
  position: 
    x: -0.0358562469482
    y: 0.0856075286865
    z: 0.0
  orientation: 
    x: 0.0
    y: 0.0
    z: 0.960846945489
    w: 0.277079676887
---
header: 
  seq: 50
  stamp: 
    secs: 1553256320
    nsecs: 940847379
  frame_id: "map"
pose: 
  position: 
    x: -0.0368919372559
    y: 0.086067199707
    z: 0.0
  orientation: 
    x: 0.0
    y: 0.0
    z: 0.961261125342
    w: 0.275639345715
---
header: 
  seq: 51
  stamp: 
    secs: 1553256321
    nsecs:  40993311
  frame_id: "map"
pose: 
  position: 
    x: -0.0355281829834
    y: 0.0849933624268
    z: 0.0
  orientation: 
    x: 0.0
    y: 0.0
    z: 0.961114176011
    w: 0.276151300323
---
header: 
  seq: 52
  stamp: 
    secs: 1553256321
    nsecs: 141513231
  frame_id: "map"
pose: 
  position: 
    x: -0.0321273803711
    y: 0.0864963531494
    z: 0.0
  orientation: 
    x: 0.0
    y: 0.0
    z: 0.960774576014
    w: 0.277330514163
---
header: 
  seq: 53
  stamp: 
    secs: 1553256321
    nsecs: 241290967
  frame_id: "map"
pose: 
  position: 
    x: -0.0485553741455
    y: 0.0972557067871
    z: 0.0
  orientation: 
    x: 0.0
    y: 0.0
    z: 0.958902443007
    w: 0.283735977265
---
header: 
  seq: 54
  stamp: 
    secs: 1553256321
    nsecs: 342253931
  frame_id: "map"
pose: 
  position: 
    x: -0.0846939086914
    y: 0.114557266235
    z: 0.0
  orientation: 
    x: 0.0
    y: 0.0
    z: 0.957358068515
    w: 0.288904012866
---
header: 
  seq: 55
  stamp: 
    secs: 1553256321
    nsecs: 442694490
  frame_id: "map"
pose: 
  position: 
    x: -0.135400772095
    y: 0.1451587677
    z: 0.0
  orientation: 
    x: 0.0
    y: 0.0
    z: 0.957021735241
    w: 0.290016203473
---
header: 
  seq: 56
  stamp: 
    secs: 1553256321
    nsecs: 543181417
  frame_id: "map"
pose: 
  position: 
    x: -0.187044143677
    y: 0.177839279175
    z: 0.0
  orientation: 
    x: 0.0
    y: 0.0
    z: 0.955970357811
    w: 0.293463242991
---
header: 
  seq: 57
  stamp: 
    secs: 1553256321
    nsecs: 643692537
  frame_id: "map"
pose: 
  position: 
    x: -0.24174118042
    y: 0.213054656982
    z: 0.0
  orientation: 
    x: 0.0
    y: 0.0
    z: 0.955597750418
    w: 0.294674293748
---
header: 
  seq: 58
  stamp: 
    secs: 1553256321
    nsecs: 744080295
  frame_id: "map"
pose: 
  position: 
    x: -0.301027297974
    y: 0.242782592773
    z: 0.0
  orientation: 
    x: 0.0
    y: 0.0
    z: 0.955072378061
    w: 0.296372658431
---
header: 
  seq: 59
  stamp: 
    secs: 1553256321
    nsecs: 844056274
  frame_id: "map"
pose: 
  position: 
    x: -0.361553192139
    y: 0.284955978394
    z: 0.0
  orientation: 
    x: 0.0
    y: 0.0
    z: 0.952268265851
    w: 0.305262427843
---
header: 
  seq: 60
  stamp: 
    secs: 1553256321
    nsecs: 943997450
  frame_id: "map"
pose: 
  position: 
    x: -0.414604187012
    y: 0.336338043213
    z: 0.0
  orientation: 
    x: 0.0
    y: 0.0
    z: 0.943923216127
    w: 0.330165052749
---
header: 
  seq: 61
  stamp: 
    secs: 1553256322
    nsecs:  44384121
  frame_id: "map"
pose: 
  position: 
    x: -0.463495254517
    y: 0.372325897217
    z: 0.0
  orientation: 
    x: 0.0
    y: 0.0
    z: 0.932461834958
    w: 0.361268496199
---
header: 
  seq: 62
  stamp: 
    secs: 1553256322
    nsecs: 145686641
  frame_id: "map"
pose: 
  position: 
    x: -0.501573562622
    y: 0.40521812439
    z: 0.0
  orientation: 
    x: 0.0
    y: 0.0
    z: 0.928474220675
    w: 0.371396851821
---
header: 
  seq: 63
  stamp: 
    secs: 1553256322
    nsecs: 246521925
  frame_id: "map"
pose: 
  position: 
    x: -0.5475730896
    y: 0.440340042114
    z: 0.0
  orientation: 
    x: 0.0
    y: 0.0
    z: 0.930916659374
    w: 0.365231670725
---
header: 
  seq: 64
  stamp: 
    secs: 1553256322
    nsecs: 348323522
  frame_id: "map"
pose: 
  position: 
    x: -0.595022201538
    y: 0.47660446167
    z: 0.0
  orientation: 
    x: 0.0
    y: 0.0
    z: 0.947066990875
    w: 0.321036002335
---
header: 
  seq: 65
  stamp: 
    secs: 1553256322
    nsecs: 450048350
  frame_id: "map"
pose: 
  position: 
    x: -0.642454147339
    y: 0.504846572876
    z: 0.0
  orientation: 
    x: 0.0
    y: 0.0
    z: 0.967600822887
    w: 0.252484945192
---
header: 
  seq: 66
  stamp: 
    secs: 1553256322
    nsecs: 551180597
  frame_id: "map"
pose: 
  position: 
    x: -0.684833526611
    y: 0.523977279663
    z: 0.0
  orientation: 
    x: 0.0
    y: 0.0
    z: 0.985537731679
    w: 0.169456128352
---
header: 
  seq: 67
  stamp: 
    secs: 1553256322
    nsecs: 651787590
  frame_id: "map"
pose: 
  position: 
    x: -0.724481582642
    y: 0.533630371094
    z: 0.0
  orientation: 
    x: 0.0
    y: 0.0
    z: 0.996739532492
    w: 0.0806864571557
---
header: 
  seq: 68
  stamp: 
    secs: 1553256322
    nsecs: 750739144
  frame_id: "map"
pose: 
  position: 
    x: -0.787042617798
    y: 0.545480728149
    z: 0.0
  orientation: 
    x: 0.0
    y: 0.0
    z: 0.999333355275
    w: 0.0365081502539
---
header: 
  seq: 69
  stamp: 
    secs: 1553256322
    nsecs: 850548946
  frame_id: "map"
pose: 
  position: 
    x: -0.839946746826
    y: 0.546684265137
    z: 0.0
  orientation: 
    x: 0.0
    y: 0.0
    z: 0.99930980625
    w: 0.0371471550974
---
header: 
  seq: 70
  stamp: 
    secs: 1553256322
    nsecs: 950650955
  frame_id: "map"
pose: 
  position: 
    x: -0.8941822052
    y: 0.553153991699
    z: 0.0
  orientation: 
    x: 0.0
    y: 0.0
    z: 0.999547988275
    w: 0.0300635848752
---
header: 
  seq: 71
  stamp: 
    secs: 1553256323
    nsecs:  51246593
  frame_id: "map"
pose: 
  position: 
    x: -0.963781356812
    y: 0.558582305908
    z: 0.0
  orientation: 
    x: 0.0
    y: 0.0
    z: 0.999730565854
    w: 0.0232119731559
---
header: 
  seq: 72
  stamp: 
    secs: 1553256323
    nsecs: 151306770
  frame_id: "map"
pose: 
  position: 
    x: -1.03342628479
    y: 0.56298828125
    z: 0.0
  orientation: 
    x: 0.0
    y: 0.0
    z: 0.999696232204
    w: 0.0246463651951
---
header: 
  seq: 73
  stamp: 
    secs: 1553256323
    nsecs: 251971625
  frame_id: "map"
pose: 
  position: 
    x: -1.10104179382
    y: 0.567590713501
    z: 0.0
  orientation: 
    x: 0.0
    y: 0.0
    z: 0.999662719613
    w: 0.0259701177463
---
header: 
  seq: 74
  stamp: 
    secs: 1553256323
    nsecs: 352695361
  frame_id: "map"
pose: 
  position: 
    x: -1.16694259644
    y: 0.571989059448
    z: 0.0
  orientation: 
    x: 0.0
    y: 0.0
    z: 0.999667258282
    w: 0.0257948196274
---
header: 
  seq: 75
  stamp: 
    secs: 1553256323
    nsecs: 453037461
  frame_id: "map"
pose: 
  position: 
    x: -1.2341594696
    y: 0.569141387939
    z: 0.0
  orientation: 
    x: 0.0
    y: 0.0
    z: 0.999606440038
    w: 0.028052897095
---
header: 
  seq: 76
  stamp: 
    secs: 1553256323
    nsecs: 553622667
  frame_id: "map"
pose: 
  position: 
    x: -1.30824279785
    y: 0.574043273926
    z: 0.0
  orientation: 
    x: 0.0
    y: 0.0
    z: 0.999556850306
    w: 0.0297674823776
---
header: 
  seq: 77
  stamp: 
    secs: 1553256323
    nsecs: 654031904
  frame_id: "map"
pose: 
  position: 
    x: -1.3737487793
    y: 0.573623657227
    z: 0.0
  orientation: 
    x: 0.0
    y: 0.0
    z: 0.999410948219
    w: 0.0343184582934
---
header: 
  seq: 78
  stamp: 
    secs: 1553256323
    nsecs: 754632886
  frame_id: "map"
pose: 
  position: 
    x: -1.43741798401
    y: 0.57780456543
    z: 0.0
  orientation: 
    x: 0.0
    y: 0.0
    z: 0.999306356746
    w: 0.0372398357528
---
header: 
  seq: 79
  stamp: 
    secs: 1553256323
    nsecs: 855454190
  frame_id: "map"
pose: 
  position: 
    x: -1.50053787231
    y: 0.582382202148
    z: 0.0
  orientation: 
    x: 0.0
    y: 0.0
    z: 0.999249557097
    w: 0.0387339985208
---
header: 
  seq: 80
  stamp: 
    secs: 1553256323
    nsecs: 955842476
  frame_id: "map"
pose: 
  position: 
    x: -1.56344985962
    y: 0.583135604858
    z: 0.0
  orientation: 
    x: 0.0
    y: 0.0
    z: 0.99919826878
    w: 0.0400352303304
---
header: 
  seq: 81
  stamp: 
    secs: 1553256324
    nsecs:  56308426
  frame_id: "map"
pose: 
  position: 
    x: -1.62422180176
    y: 0.589889526367
    z: 0.0
  orientation: 
    x: 0.0
    y: 0.0
    z: 0.999191769743
    w: 0.040197105344
---
header: 
  seq: 82
  stamp: 
    secs: 1553256324
    nsecs: 156860136
  frame_id: "map"
pose: 
  position: 
    x: -1.68666648865
    y: 0.592258453369
    z: 0.0
  orientation: 
    x: 0.0
    y: 0.0
    z: 0.999201544185
    w: 0.0399533990735
---
header: 
  seq: 83
  stamp: 
    secs: 1553256324
    nsecs: 257864458
  frame_id: "map"
pose: 
  position: 
    x: -1.75185012817
    y: 0.59578704834
    z: 0.0
  orientation: 
    x: 0.0
    y: 0.0
    z: 0.999328607406
    w: 0.0366378823191
---
header: 
  seq: 84
  stamp: 
    secs: 1553256324
    nsecs: 358395113
  frame_id: "map"
pose: 
  position: 
    x: -1.81585693359
    y: 0.595670700073
    z: 0.0
  orientation: 
    x: 0.0
    y: 0.0
    z: 0.999269039352
    w: 0.0382280916612
---
header: 
  seq: 85
  stamp: 
    secs: 1553256324
    nsecs: 458826118
  frame_id: "map"
pose: 
  position: 
    x: -1.878074646
    y: 0.601007461548
    z: 0.0
  orientation: 
    x: 0.0
    y: 0.0
    z: 0.999236474761
    w: 0.0390700333641
---
header: 
  seq: 86
  stamp: 
    secs: 1553256324
    nsecs: 559571046
  frame_id: "map"
pose: 
  position: 
    x: -1.93841743469
    y: 0.603130340576
    z: 0.0
  orientation: 
    x: 0.0
    y: 0.0
    z: 0.999258350529
    w: 0.0385064786439
---
header: 
  seq: 87
  stamp: 
    secs: 1553256324
    nsecs: 660043076
  frame_id: "map"
pose: 
  position: 
    x: -1.99842453003
    y: 0.607908248901
    z: 0.0
  orientation: 
    x: 0.0
    y: 0.0
    z: 0.999359156841
    w: 0.0357949107881
---
header: 
  seq: 88
  stamp: 
    secs: 1553256324
    nsecs: 760659843
  frame_id: "map"
pose: 
  position: 
    x: -2.05854034424
    y: 0.610422134399
    z: 0.0
  orientation: 
    x: 0.0
    y: 0.0
    z: 0.999453760035
    w: 0.0330481701604
---
header: 
  seq: 89
  stamp: 
    secs: 1553256324
    nsecs: 861212673
  frame_id: "map"
pose: 
  position: 
    x: -2.11913299561
    y: 0.61431312561
    z: 0.0
  orientation: 
    x: 0.0
    y: 0.0
    z: 0.999510007683
    w: 0.031300871257
---
header: 
  seq: 90
  stamp: 
    secs: 1553256324
    nsecs: 962128490
  frame_id: "map"
pose: 
  position: 
    x: -2.17308044434
    y: 0.61581993103
    z: 0.0
  orientation: 
    x: 0.0
    y: 0.0
    z: 0.999556204232
    w: 0.0297891688467
---
header: 
  seq: 91
  stamp: 
    secs: 1553256325
    nsecs:  62534388
  frame_id: "map"
pose: 
  position: 
    x: -2.22878837585
    y: 0.619443893433
    z: 0.0
  orientation: 
    x: 0.0
    y: 0.0
    z: 0.999668566935
    w: 0.0257440533345
---
header: 
  seq: 92
  stamp: 
    secs: 1553256325
    nsecs: 163165407
  frame_id: "map"
pose: 
  position: 
    x: -2.28074264526
    y: 0.620328903198
    z: 0.0
  orientation: 
    x: 0.0
    y: 0.0
    z: 0.999813534106
    w: 0.0193105416445
---
header: 
  seq: 93
  stamp: 
    secs: 1553256325
    nsecs: 263765642
  frame_id: "map"
pose: 
  position: 
    x: -2.33591842651
    y: 0.618915557861
    z: 0.0
  orientation: 
    x: 0.0
    y: 0.0
    z: 0.999953179269
    w: 0.00967673855037
---
header: 
  seq: 94
  stamp: 
    secs: 1553256325
    nsecs: 364553367
  frame_id: "map"
pose: 
  position: 
    x: -2.38692855835
    y: 0.619821548462
    z: 0.0
  orientation: 
    x: 0.0
    y: 0.0
    z: -0.999997528406
    w: 0.0022233269163
---
header: 
  seq: 95
  stamp: 
    secs: 1553256325
    nsecs: 465028897
  frame_id: "map"
pose: 
  position: 
    x: -2.43912315369
    y: 0.616704940796
    z: 0.0
  orientation: 
    x: 0.0
    y: 0.0
    z: -0.999897224993
    w: 0.0143366471637
---
header: 
  seq: 96
  stamp: 
    secs: 1553256325
    nsecs: 565612460
  frame_id: "map"
pose: 
  position: 
    x: -2.48738479614
    y: 0.610628128052
    z: 0.0
  orientation: 
    x: 0.0
    y: 0.0
    z: -0.999692793796
    w: 0.0247854399377
---
header: 
  seq: 97
  stamp: 
    secs: 1553256325
    nsecs: 666034614
  frame_id: "map"
pose: 
  position: 
    x: -2.53786659241
    y: 0.606210708618
    z: 0.0
  orientation: 
    x: 0.0
    y: 0.0
    z: -0.999404339061
    w: 0.0345103906997
---
header: 
  seq: 98
  stamp: 
    secs: 1553256325
    nsecs: 766625825
  frame_id: "map"
pose: 
  position: 
    x: -2.58700561523
    y: 0.598625183105
    z: 0.0
  orientation: 
    x: 0.0
    y: 0.0
    z: -0.998972382314
    w: 0.0453230556561
---
header: 
  seq: 99
  stamp: 
    secs: 1553256325
    nsecs: 867297164
  frame_id: "map"
pose: 
  position: 
    x: -2.63757896423
    y: 0.59354019165
    z: 0.0
  orientation: 
    x: 0.0
    y: 0.0
    z: -0.998365873351
    w: 0.0571452791432
---
header: 
  seq: 100
  stamp: 
    secs: 1553256325
    nsecs: 968029406
  frame_id: "map"
pose: 
  position: 
    x: -2.68526268005
    y: 0.585788726807
    z: 0.0
  orientation: 
    x: 0.0
    y: 0.0
    z: -0.99749896518
    w: 0.0706810757201
---
header: 
  seq: 101
  stamp: 
    secs: 1553256326
    nsecs:  68752922
  frame_id: "map"
pose: 
  position: 
    x: -2.73194503784
    y: 0.574634552002
    z: 0.0
  orientation: 
    x: 0.0
    y: 0.0
    z: -0.996479537237
    w: 0.0838363397814
---
header: 
  seq: 102
  stamp: 
    secs: 1553256326
    nsecs: 169175251
  frame_id: "map"
pose: 
  position: 
    x: -2.77938652039
    y: 0.564531326294
    z: 0.0
  orientation: 
    x: 0.0
    y: 0.0
    z: -0.995240487334
    w: 0.0974493323241
---
header: 
  seq: 103
  stamp: 
    secs: 1553256326
    nsecs: 269583948
  frame_id: "map"
pose: 
  position: 
    x: -2.82759666443
    y: 0.553232192993
    z: 0.0
  orientation: 
    x: 0.0
    y: 0.0
    z: -0.99401272488
    w: 0.109264371031
---
header: 
  seq: 104
  stamp: 
    secs: 1553256326
    nsecs: 369818371
  frame_id: "map"
pose: 
  position: 
    x: -2.87737846375
    y: 0.536647796631
    z: 0.0
  orientation: 
    x: 0.0
    y: 0.0
    z: -0.993598490709
    w: 0.11296919607
---
header: 
  seq: 105
  stamp: 
    secs: 1553256326
    nsecs: 470234653
  frame_id: "map"
pose: 
  position: 
    x: -2.92362594604
    y: 0.527189254761
    z: 0.0
  orientation: 
    x: 0.0
    y: 0.0
    z: -0.993934017119
    w: 0.109978041508
---
header: 
  seq: 106
  stamp: 
    secs: 1553256326
    nsecs: 570764534
  frame_id: "map"
pose: 
  position: 
    x: -2.96713829041
    y: 0.515241622925
    z: 0.0
  orientation: 
    x: 0.0
    y: 0.0
    z: -0.994056254508
    w: 0.108867639235
---
header: 
  seq: 107
  stamp: 
    secs: 1553256326
    nsecs: 671325809
  frame_id: "map"
pose: 
  position: 
    x: -3.01211357117
    y: 0.504856109619
    z: 0.0
  orientation: 
    x: 0.0
    y: 0.0
    z: -0.994078167212
    w: 0.108667370777
---
header: 
  seq: 108
  stamp: 
    secs: 1553256326
    nsecs: 771840330
  frame_id: "map"
pose: 
  position: 
    x: -3.05961227417
    y: 0.492725372314
    z: 0.0
  orientation: 
    x: 0.0
    y: 0.0
    z: -0.994113647328
    w: 0.108342310279
---
header: 
  seq: 109
  stamp: 
    secs: 1553256326
    nsecs: 872225411
  frame_id: "map"
pose: 
  position: 
    x: -3.10660362244
    y: 0.482944488525
    z: 0.0
  orientation: 
    x: 0.0
    y: 0.0
    z: -0.993929388266
    w: 0.110019867028
---
header: 
  seq: 110
  stamp: 
    secs: 1553256326
    nsecs: 972946725
  frame_id: "map"
pose: 
  position: 
    x: -3.1551361084
    y: 0.471668243408
    z: 0.0
  orientation: 
    x: 0.0
    y: 0.0
    z: -0.993832410348
    w: 0.110892471075
---
header: 
  seq: 111
  stamp: 
    secs: 1553256327
    nsecs:  73551538
  frame_id: "map"
pose: 
  position: 
    x: -3.20166778564
    y: 0.460289001465
    z: 0.0
  orientation: 
    x: 0.0
    y: 0.0
    z: -0.994178458809
    w: 0.107745960671
---
header: 
  seq: 112
  stamp: 
    secs: 1553256327
    nsecs: 174273951
  frame_id: "map"
pose: 
  position: 
    x: -3.248670578
    y: 0.449226379395
    z: 0.0
  orientation: 
    x: 0.0
    y: 0.0
    z: -0.994240102099
    w: 0.107175647314
---
header: 
  seq: 113
  stamp: 
    secs: 1553256327
    nsecs: 275376944
  frame_id: "map"
pose: 
  position: 
    x: -3.29420471191
    y: 0.437149047852
    z: 0.0
  orientation: 
    x: 0.0
    y: 0.0
    z: -0.994122981477
    w: 0.108256628895
---
header: 
  seq: 114
  stamp: 
    secs: 1553256327
    nsecs: 375664410
  frame_id: "map"
pose: 
  position: 
    x: -3.33973503113
    y: 0.427402496338
    z: 0.0
  orientation: 
    x: 0.0
    y: 0.0
    z: -0.993706175291
    w: 0.11201802171
---
header: 
  seq: 115
  stamp: 
    secs: 1553256327
    nsecs: 476084614
  frame_id: "map"
pose: 
  position: 
    x: -3.38466835022
    y: 0.412651062012
    z: 0.0
  orientation: 
    x: 0.0
    y: 0.0
    z: -0.993045963772
    w: 0.117727285857
---
header: 
  seq: 116
  stamp: 
    secs: 1553256327
    nsecs: 577280694
  frame_id: "map"
pose: 
  position: 
    x: -3.4271030426
    y: 0.397493362427
    z: 0.0
  orientation: 
    x: 0.0
    y: 0.0
    z: -0.991303209526
    w: 0.131597670133
---
header: 
  seq: 117
  stamp: 
    secs: 1553256327
    nsecs: 677497376
  frame_id: "map"
pose: 
  position: 
    x: -3.46832466125
    y: 0.382934570312
    z: 0.0
  orientation: 
    x: 0.0
    y: 0.0
    z: -0.98914252983
    w: 0.14695936745
---
header: 
  seq: 118
  stamp: 
    secs: 1553256327
    nsecs: 777834763
  frame_id: "map"
pose: 
  position: 
    x: -3.51504135132
    y: 0.368581771851
    z: 0.0
  orientation: 
    x: 0.0
    y: 0.0
    z: -0.986825462815
    w: 0.161788460467
---
header: 
  seq: 119
  stamp: 
    secs: 1553256327
    nsecs: 878511289
  frame_id: "map"
pose: 
  position: 
    x: -3.55576133728
    y: 0.353933334351
    z: 0.0
  orientation: 
    x: 0.0
    y: 0.0
    z: -0.984601333532
    w: 0.174814799163
---
header: 
  seq: 120
  stamp: 
    secs: 1553256327
    nsecs: 979079691
  frame_id: "map"
pose: 
  position: 
    x: -3.59553718567
    y: 0.338254928589
    z: 0.0
  orientation: 
    x: 0.0
    y: 0.0
    z: -0.981948716358
    w: 0.189147345853
---
header: 
  seq: 121
  stamp: 
    secs: 1553256328
    nsecs:  79353643
  frame_id: "map"
pose: 
  position: 
    x: -3.63978004456
    y: 0.317031860352
    z: 0.0
  orientation: 
    x: 0.0
    y: 0.0
    z: -0.980570699577
    w: 0.196166009111
---
header: 
  seq: 122
  stamp: 
    secs: 1553256328
    nsecs: 179840140
  frame_id: "map"
pose: 
  position: 
    x: -3.67370796204
    y: 0.299446105957
    z: 0.0
  orientation: 
    x: 0.0
    y: 0.0
    z: -0.980919556252
    w: 0.194414053405
---
header: 
  seq: 123
  stamp: 
    secs: 1553256328
    nsecs: 280415214
  frame_id: "map"
pose: 
  position: 
    x: -3.71586608887
    y: 0.2795753479
    z: 0.0
  orientation: 
    x: 0.0
    y: 0.0
    z: -0.981393381958
    w: 0.192007890071
---
header: 
  seq: 124
  stamp: 
    secs: 1553256328
    nsecs: 381212113
  frame_id: "map"
pose: 
  position: 
    x: -3.75328636169
    y: 0.260627746582
    z: 0.0
  orientation: 
    x: 0.0
    y: 0.0
    z: -0.98136583625
    w: 0.192148628519
---
header: 
  seq: 125
  stamp: 
    secs: 1553256328
    nsecs: 481690130
  frame_id: "map"
pose: 
  position: 
    x: -3.79998970032
    y: 0.242303848267
    z: 0.0
  orientation: 
    x: 0.0
    y: 0.0
    z: -0.981173395151
    w: 0.193128891283
---
header: 
  seq: 126
  stamp: 
    secs: 1553256328
    nsecs: 582269812
  frame_id: "map"
pose: 
  position: 
    x: -3.84316444397
    y: 0.221820831299
    z: 0.0
  orientation: 
    x: 0.0
    y: 0.0
    z: -0.981493274259
    w: 0.191496612462
---
header: 
  seq: 127
  stamp: 
    secs: 1553256328
    nsecs: 682589556
  frame_id: "map"
pose: 
  position: 
    x: -3.89298057556
    y: 0.204931259155
    z: 0.0
  orientation: 
    x: 0.0
    y: 0.0
    z: -0.981586843625
    w: 0.191016408776
---
header: 
  seq: 128
  stamp: 
    secs: 1553256328
    nsecs: 783080149
  frame_id: "map"
pose: 
  position: 
    x: -3.94104957581
    y: 0.186548233032
    z: 0.0
  orientation: 
    x: 0.0
    y: 0.0
    z: -0.982044060019
    w: 0.188651700712
---
header: 
  seq: 129
  stamp: 
    secs: 1553256328
    nsecs: 883700087
  frame_id: "map"
pose: 
  position: 
    x: -3.98583221436
    y: 0.166868209839
    z: 0.0
  orientation: 
    x: 0.0
    y: 0.0
    z: -0.98248636257
    w: 0.186334503952
---
header: 
  seq: 130
  stamp: 
    secs: 1553256328
    nsecs: 984235134
  frame_id: "map"
pose: 
  position: 
    x: -4.03224372864
    y: 0.149709701538
    z: 0.0
  orientation: 
    x: 0.0
    y: 0.0
    z: -0.982626114645
    w: 0.185596117462
---
header: 
  seq: 131
  stamp: 
    secs: 1553256329
    nsecs:  84721143
  frame_id: "map"
pose: 
  position: 
    x: -4.07904624939
    y: 0.130664825439
    z: 0.0
  orientation: 
    x: 0.0
    y: 0.0
    z: -0.982973636344
    w: 0.183746646916
---
header: 
  seq: 132
  stamp: 
    secs: 1553256329
    nsecs: 185291537
  frame_id: "map"
pose: 
  position: 
    x: -4.12626647949
    y: 0.109603881836
    z: 0.0
  orientation: 
    x: 0.0
    y: 0.0
    z: -0.983222133239
    w: 0.182412271268
---
header: 
  seq: 133
  stamp: 
    secs: 1553256329
    nsecs: 285822282
  frame_id: "map"
pose: 
  position: 
    x: -4.17008209229
    y: 0.0886917114258
    z: 0.0
  orientation: 
    x: 0.0
    y: 0.0
    z: -0.98346195364
    w: 0.181114841312
---
header: 
  seq: 134
  stamp: 
    secs: 1553256329
    nsecs: 386301604
  frame_id: "map"
pose: 
  position: 
    x: -4.21739578247
    y: 0.0695972442627
    z: 0.0
  orientation: 
    x: 0.0
    y: 0.0
    z: -0.983987874772
    w: 0.178235412592
---
header: 
  seq: 135
  stamp: 
    secs: 1553256329
    nsecs: 486995518
  frame_id: "map"
pose: 
  position: 
    x: -4.26343536377
    y: 0.0518016815186
    z: 0.0
  orientation: 
    x: 0.0
    y: 0.0
    z: -0.984584323803
    w: 0.174910575214
---
header: 
  seq: 136
  stamp: 
    secs: 1553256329
    nsecs: 587675320
  frame_id: "map"
pose: 
  position: 
    x: -4.30911636353
    y: 0.0339069366455
    z: 0.0
  orientation: 
    x: 0.0
    y: 0.0
    z: -0.984920644465
    w: 0.173006716938
---
header: 
  seq: 137
  stamp: 
    secs: 1553256329
    nsecs: 688049169
  frame_id: "map"
pose: 
  position: 
    x: -4.35389900208
    y: 0.0160865783691
    z: 0.0
  orientation: 
    x: 0.0
    y: 0.0
    z: -0.98495230643
    w: 0.172826369683
---
header: 
  seq: 138
  stamp: 
    secs: 1553256329
    nsecs: 788570154
  frame_id: "map"
pose: 
  position: 
    x: -4.39952468872
    y: -0.000614166259766
    z: 0.0
  orientation: 
    x: 0.0
    y: 0.0
    z: -0.985352999796
    w: 0.170527023647
---
header: 
  seq: 139
  stamp: 
    secs: 1553256329
    nsecs: 889028419
  frame_id: "map"
pose: 
  position: 
    x: -4.4455280304
    y: -0.0173149108887
    z: 0.0
  orientation: 
    x: 0.0
    y: 0.0
    z: -0.985338624113
    w: 0.170610069546
---
header: 
  seq: 140
  stamp: 
    secs: 1553256329
    nsecs: 989633282
  frame_id: "map"
pose: 
  position: 
    x: -4.49167633057
    y: -0.033275604248
    z: 0.0
  orientation: 
    x: 0.0
    y: 0.0
    z: -0.985834089016
    w: 0.16772342989
---
header: 
  seq: 141
  stamp: 
    secs: 1553256330
    nsecs:  89882036
  frame_id: "map"
pose: 
  position: 
    x: -4.53960037231
    y: -0.0496673583984
    z: 0.0
  orientation: 
    x: 0.0
    y: 0.0
    z: -0.986788850736
    w: 0.16201161706
---
header: 
  seq: 142
  stamp: 
    secs: 1553256330
    nsecs: 190482984
  frame_id: "map"
pose: 
  position: 
    x: -4.59027099609
    y: -0.0661849975586
    z: 0.0
  orientation: 
    x: 0.0
    y: 0.0
    z: -0.988267196276
    w: 0.15273489701
---
header: 
  seq: 143
  stamp: 
    secs: 1553256330
    nsecs: 290657497
  frame_id: "map"
pose: 
  position: 
    x: -4.63804721832
    y: -0.0814094543457
    z: 0.0
  orientation: 
    x: 0.0
    y: 0.0
    z: -0.989713323011
    w: 0.143064804385
---
header: 
  seq: 144
  stamp: 
    secs: 1553256330
    nsecs: 391208813
  frame_id: "map"
pose: 
  position: 
    x: -4.68562507629
    y: -0.0927715301514
    z: 0.0
  orientation: 
    x: 0.0
    y: 0.0
    z: -0.991878997467
    w: 0.127185118565
---
header: 
  seq: 145
  stamp: 
    secs: 1553256330
    nsecs: 491545312
  frame_id: "map"
pose: 
  position: 
    x: -4.72759628296
    y: -0.101079940796
    z: 0.0
  orientation: 
    x: 0.0
    y: 0.0
    z: -0.993978314914
    w: 0.109576956886
---
header: 
  seq: 146
  stamp: 
    secs: 1553256330
    nsecs: 591870226
  frame_id: "map"
pose: 
  position: 
    x: -4.77081298828
    y: -0.107656478882
    z: 0.0
  orientation: 
    x: 0.0
    y: 0.0
    z: -0.99576144307
    w: 0.0919736293416
---
header: 
  seq: 147
  stamp: 
    secs: 1553256330
    nsecs: 692395046
  frame_id: "map"
pose: 
  position: 
    x: -4.81398868561
    y: -0.116022109985
    z: 0.0
  orientation: 
    x: 0.0
    y: 0.0
    z: -0.99735722985
    w: 0.0726536720712
---
header: 
  seq: 148
  stamp: 
    secs: 1553256330
    nsecs: 792876793
  frame_id: "map"
pose: 
  position: 
    x: -4.85639476776
    y: -0.121541976929
    z: 0.0
  orientation: 
    x: 0.0
    y: 0.0
    z: -0.998605981431
    w: 0.0527834619029
---
header: 
  seq: 149
  stamp: 
    secs: 1553256330
    nsecs: 893251820
  frame_id: "map"
pose: 
  position: 
    x: -4.8982667923
    y: -0.131143569946
    z: 0.0
  orientation: 
    x: 0.0
    y: 0.0
    z: -0.999548260607
    w: 0.0300545290632
---
header: 
  seq: 150
  stamp: 
    secs: 1553256330
    nsecs: 993931974
  frame_id: "map"
pose: 
  position: 
    x: -4.94156360626
    y: -0.136070251465
    z: 0.0
  orientation: 
    x: 0.0
    y: 0.0
    z: -0.999966410438
    w: 0.0081962184306
---
header: 
  seq: 151
  stamp: 
    secs: 1553256331
    nsecs:  93877811
  frame_id: "map"
pose: 
  position: 
    x: -4.98386669159
    y: -0.135818481445
    z: 0.0
  orientation: 
    x: 0.0
    y: 0.0
    z: 0.999930813295
    w: 0.0117630192739
---
header: 
  seq: 152
  stamp: 
    secs: 1553256331
    nsecs: 193934593
  frame_id: "map"
pose: 
  position: 
    x: -5.02843952179
    y: -0.125713348389
    z: 0.0
  orientation: 
    x: 0.0
    y: 0.0
    z: 0.99947964465
    w: 0.0322558511108
---
header: 
  seq: 153
  stamp: 
    secs: 1553256331
    nsecs: 294210064
  frame_id: "map"
pose: 
  position: 
    x: -5.0726442337
    y: -0.116640090942
    z: 0.0
  orientation: 
    x: 0.0
    y: 0.0
    z: 0.998544715923
    w: 0.0539300500872
---
header: 
  seq: 154
  stamp: 
    secs: 1553256331
    nsecs: 394146557
  frame_id: "map"
pose: 
  position: 
    x: -5.11480426788
    y: -0.116130828857
    z: 0.0
  orientation: 
    x: 0.0
    y: 0.0
    z: 0.99710056435
    w: 0.0760951021622
---
header: 
  seq: 155
  stamp: 
    secs: 1553256331
    nsecs: 493909066
  frame_id: "map"
pose: 
  position: 
    x: -5.15885353088
    y: -0.108564376831
    z: 0.0
  orientation: 
    x: 0.0
    y: 0.0
    z: 0.994681455146
    w: 0.102999042663
---
header: 
  seq: 156
  stamp: 
    secs: 1553256331
    nsecs: 594087192
  frame_id: "map"
pose: 
  position: 
    x: -5.20279884338
    y: -0.0974578857422
    z: 0.0
  orientation: 
    x: 0.0
    y: 0.0
    z: 0.990687919713
    w: 0.13615228876
---
header: 
  seq: 157
  stamp: 
    secs: 1553256331
    nsecs: 694093222
  frame_id: "map"
pose: 
  position: 
    x: -5.24036216736
    y: -0.0755081176758
    z: 0.0
  orientation: 
    x: 0.0
    y: 0.0
    z: 0.984585825036
    w: 0.174902124453
---
header: 
  seq: 158
  stamp: 
    secs: 1553256331
    nsecs: 794791735
  frame_id: "map"
pose: 
  position: 
    x: -5.27673053741
    y: -0.0583744049072
    z: 0.0
  orientation: 
    x: 0.0
    y: 0.0
    z: 0.97617651936
    w: 0.216977886087
---
header: 
  seq: 159
  stamp: 
    secs: 1553256331
    nsecs: 895615593
  frame_id: "map"
pose: 
  position: 
    x: -5.3104133606
    y: -0.0560722351074
    z: 0.0
  orientation: 
    x: 0.0
    y: 0.0
    z: 0.96609601556
    w: 0.258183052733
---
header: 
  seq: 160
  stamp: 
    secs: 1553256331
    nsecs: 996261440
  frame_id: "map"
pose: 
  position: 
    x: -5.34004878998
    y: -0.0388641357422
    z: 0.0
  orientation: 
    x: 0.0
    y: 0.0
    z: 0.954458811896
    w: 0.298342716341
---
header: 
  seq: 161
  stamp: 
    secs: 1553256332
    nsecs:  96942352
  frame_id: "map"
pose: 
  position: 
    x: -5.36484146118
    y: -0.0299758911133
    z: 0.0
  orientation: 
    x: 0.0
    y: 0.0
    z: 0.944303070222
    w: 0.329077060228
---
header: 
  seq: 162
  stamp: 
    secs: 1553256332
    nsecs: 197885602
  frame_id: "map"
pose: 
  position: 
    x: -5.39645862579
    y: 0.000699996948242
    z: 0.0
  orientation: 
    x: 0.0
    y: 0.0
    z: 0.936443267654
    w: 0.350819050888
---
header: 
  seq: 163
  stamp: 
    secs: 1553256332
    nsecs: 298905268
  frame_id: "map"
pose: 
  position: 
    x: -5.42402553558
    y: 0.00654983520508
    z: 0.0
  orientation: 
    x: 0.0
    y: 0.0
    z: 0.929659404083
    w: 0.368420130286
---
header: 
  seq: 164
  stamp: 
    secs: 1553256332
    nsecs: 399467651
  frame_id: "map"
pose: 
  position: 
    x: -5.45606422424
    y: 0.0301494598389
    z: 0.0
  orientation: 
    x: 0.0
    y: 0.0
    z: 0.92201352565
    w: 0.387157666228
---
header: 
  seq: 165
  stamp: 
    secs: 1553256332
    nsecs: 500030771
  frame_id: "map"
pose: 
  position: 
    x: -5.48738956451
    y: 0.0571842193604
    z: 0.0
  orientation: 
    x: 0.0
    y: 0.0
    z: 0.91122206834
    w: 0.411915455124
---
header: 
  seq: 166
  stamp: 
    secs: 1553256332
    nsecs: 600506722
  frame_id: "map"
pose: 
  position: 
    x: -5.51521968842
    y: 0.0869064331055
    z: 0.0
  orientation: 
    x: 0.0
    y: 0.0
    z: 0.898122260379
    w: 0.439745841835
---
header: 
  seq: 167
  stamp: 
    secs: 1553256332
    nsecs: 701197971
  frame_id: "map"
pose: 
  position: 
    x: -5.54076385498
    y: 0.128923416138
    z: 0.0
  orientation: 
    x: 0.0
    y: 0.0
    z: 0.88342282203
    w: 0.468576693314
---
header: 
  seq: 168
  stamp: 
    secs: 1553256332
    nsecs: 801999459
  frame_id: "map"
pose: 
  position: 
    x: -5.56309604645
    y: 0.147327423096
    z: 0.0
  orientation: 
    x: 0.0
    y: 0.0
    z: 0.868659662338
    w: 0.495409316653
---
header: 
  seq: 169
  stamp: 
    secs: 1553256332
    nsecs: 902616915
  frame_id: "map"
pose: 
  position: 
    x: -5.58210277557
    y: 0.178504943848
    z: 0.0
  orientation: 
    x: 0.0
    y: 0.0
    z: 0.85308119171
    w: 0.521778190758
---
header: 
  seq: 170
  stamp: 
    secs: 1553256333
    nsecs:   3022855
  frame_id: "map"
pose: 
  position: 
    x: -5.59998512268
    y: 0.201877593994
    z: 0.0
  orientation: 
    x: 0.0
    y: 0.0
    z: 0.837513663858
    w: 0.546416382306
---
header: 
  seq: 171
  stamp: 
    secs: 1553256333
    nsecs: 103514807
  frame_id: "map"
pose: 
  position: 
    x: -5.61709594727
    y: 0.250350952148
    z: 0.0
  orientation: 
    x: 0.0
    y: 0.0
    z: 0.820618603493
    w: 0.571476252876
---
header: 
  seq: 172
  stamp: 
    secs: 1553256333
    nsecs: 203967719
  frame_id: "map"
pose: 
  position: 
    x: -5.63134098053
    y: 0.291051864624
    z: 0.0
  orientation: 
    x: 0.0
    y: 0.0
    z: 0.802306539817
    w: 0.596912234895
---
header: 
  seq: 173
  stamp: 
    secs: 1553256333
    nsecs: 304340407
  frame_id: "map"
pose: 
  position: 
    x: -5.64363956451
    y: 0.328638076782
    z: 0.0
  orientation: 
    x: 0.0
    y: 0.0
    z: 0.782852712783
    w: 0.622207063676
---
header: 
  seq: 174
  stamp: 
    secs: 1553256333
    nsecs: 404889799
  frame_id: "map"
pose: 
  position: 
    x: -5.65490722656
    y: 0.392816543579
    z: 0.0
  orientation: 
    x: 0.0
    y: 0.0
    z: 0.763137240164
    w: 0.646236452604
---
header: 
  seq: 175
  stamp: 
    secs: 1553256333
    nsecs: 505892154
  frame_id: "map"
pose: 
  position: 
    x: -5.65631580353
    y: 0.394062042236
    z: 0.0
  orientation: 
    x: 0.0
    y: 0.0
    z: 0.752736298316
    w: 0.658322159127
---
header: 
  seq: 176
  stamp: 
    secs: 1553256333
    nsecs: 606896813
  frame_id: "map"
pose: 
  position: 
    x: -5.66447257996
    y: 0.463376998901
    z: 0.0
  orientation: 
    x: 0.0
    y: 0.0
    z: 0.754238991807
    w: 0.656599987235
---
header: 
  seq: 177
  stamp: 
    secs: 1553256333
    nsecs: 707511869
  frame_id: "map"
pose: 
  position: 
    x: -5.67217350006
    y: 0.503673553467
    z: 0.0
  orientation: 
    x: 0.0
    y: 0.0
    z: 0.752694703412
    w: 0.658369716387
---
header: 
  seq: 178
  stamp: 
    secs: 1553256333
    nsecs: 807919821
  frame_id: "map"
pose: 
  position: 
    x: -5.68062019348
    y: 0.5712890625
    z: 0.0
  orientation: 
    x: 0.0
    y: 0.0
    z: 0.75115381718
    w: 0.660127217237
---
header: 
  seq: 179
  stamp: 
    secs: 1553256333
    nsecs: 908286013
  frame_id: "map"
pose: 
  position: 
    x: -5.68593883514
    y: 0.610342025757
    z: 0.0
  orientation: 
    x: 0.0
    y: 0.0
    z: 0.74863376849
    w: 0.662983771051
---
header: 
  seq: 180
  stamp: 
    secs: 1553256334
    nsecs:   9046784
  frame_id: "map"
pose: 
  position: 
    x: -5.69369888306
    y: 0.659065246582
    z: 0.0
  orientation: 
    x: 0.0
    y: 0.0
    z: 0.747241047256
    w: 0.664553095919
---
header: 
  seq: 181
  stamp: 
    secs: 1553256334
    nsecs: 109629917
  frame_id: "map"
pose: 
  position: 
    x: -5.70258617401
    y: 0.704795837402
    z: 0.0
  orientation: 
    x: 0.0
    y: 0.0
    z: 0.746303398949
    w: 0.665605916978
---
header: 
  seq: 182
  stamp: 
    secs: 1553256334
    nsecs: 210049405
  frame_id: "map"
pose: 
  position: 
    x: -5.71208953857
    y: 0.760370254517
    z: 0.0
  orientation: 
    x: 0.0
    y: 0.0
    z: 0.745506623931
    w: 0.666498217308
---
header: 
  seq: 183
  stamp: 
    secs: 1553256334
    nsecs: 310438270
  frame_id: "map"
pose: 
  position: 
    x: -5.72022914886
    y: 0.801435470581
    z: 0.0
  orientation: 
    x: 0.0
    y: 0.0
    z: 0.744475907224
    w: 0.66764932679
---
header: 
  seq: 184
  stamp: 
    secs: 1553256334
    nsecs: 410898109
  frame_id: "map"
pose: 
  position: 
    x: -5.72736549377
    y: 0.853847503662
    z: 0.0
  orientation: 
    x: 0.0
    y: 0.0
    z: 0.744397784541
    w: 0.667736428817
---
header: 
  seq: 185
  stamp: 
    secs: 1553256334
    nsecs: 511255807
  frame_id: "map"
pose: 
  position: 
    x: -5.73630142212
    y: 0.900300979614
    z: 0.0
  orientation: 
    x: 0.0
    y: 0.0
    z: 0.74253220183
    w: 0.669810368124
---
header: 
  seq: 186
  stamp: 
    secs: 1553256334
    nsecs: 611509059
  frame_id: "map"
pose: 
  position: 
    x: -5.74256420135
    y: 0.951641082764
    z: 0.0
  orientation: 
    x: 0.0
    y: 0.0
    z: 0.739699434077
    w: 0.67293740216
---
header: 
  seq: 187
  stamp: 
    secs: 1553256334
    nsecs: 711842181
  frame_id: "map"
pose: 
  position: 
    x: -5.7478427887
    y: 1.00295257568
    z: 0.0
  orientation: 
    x: 0.0
    y: 0.0
    z: 0.737053534226
    w: 0.67583436409
---
header: 
  seq: 188
  stamp: 
    secs: 1553256334
    nsecs: 812407362
  frame_id: "map"
pose: 
  position: 
    x: -5.75508499146
    y: 1.04846954346
    z: 0.0
  orientation: 
    x: 0.0
    y: 0.0
    z: 0.735875755169
    w: 0.677116587416
---
header: 
  seq: 189
  stamp: 
    secs: 1553256334
    nsecs: 912966591
  frame_id: "map"
pose: 
  position: 
    x: -5.76022720337
    y: 1.095287323
    z: 0.0
  orientation: 
    x: 0.0
    y: 0.0
    z: 0.735691447384
    w: 0.677316834462
---
header: 
  seq: 190
  stamp: 
    secs: 1553256335
    nsecs:  13301795
  frame_id: "map"
pose: 
  position: 
    x: -5.76692581177
    y: 1.14798355103
    z: 0.0
  orientation: 
    x: 0.0
    y: 0.0
    z: 0.734274548118
    w: 0.678852626117
---
header: 
  seq: 191
  stamp: 
    secs: 1553256335
    nsecs: 113778633
  frame_id: "map"
pose: 
  position: 
    x: -5.77195262909
    y: 1.19850921631
    z: 0.0
  orientation: 
    x: 0.0
    y: 0.0
    z: 0.734371529882
    w: 0.678747711671
---
header: 
  seq: 192
  stamp: 
    secs: 1553256335
    nsecs: 214284071
  frame_id: "map"
pose: 
  position: 
    x: -5.77836799622
    y: 1.25078392029
    z: 0.0
  orientation: 
    x: 0.0
    y: 0.0
    z: 0.733296814481
    w: 0.679908657006
---
header: 
  seq: 193
  stamp: 
    secs: 1553256335
    nsecs: 314588725
  frame_id: "map"
pose: 
  position: 
    x: -5.78590297699
    y: 1.29294967651
    z: 0.0
  orientation: 
    x: 0.0
    y: 0.0
    z: 0.730436908924
    w: 0.682980176932
---
header: 
  seq: 194
  stamp: 
    secs: 1553256335
    nsecs: 414895779
  frame_id: "map"
pose: 
  position: 
    x: -5.78894901276
    y: 1.3489151001
    z: 0.0
  orientation: 
    x: 0.0
    y: 0.0
    z: 0.727022840034
    w: 0.686613275483
---
header: 
  seq: 195
  stamp: 
    secs: 1553256335
    nsecs: 515484302
  frame_id: "map"
pose: 
  position: 
    x: -5.79433917999
    y: 1.40546607971
    z: 0.0
  orientation: 
    x: 0.0
    y: 0.0
    z: 0.724995803735
    w: 0.6887532828
---
header: 
  seq: 196
  stamp: 
    secs: 1553256335
    nsecs: 615976559
  frame_id: "map"
pose: 
  position: 
    x: -5.79972934723
    y: 1.4529914856
    z: 0.0
  orientation: 
    x: 0.0
    y: 0.0
    z: 0.724262147276
    w: 0.689524721836
---
header: 
  seq: 197
  stamp: 
    secs: 1553256335
    nsecs: 716376775
  frame_id: "map"
pose: 
  position: 
    x: -5.80564117432
    y: 1.50899124146
    z: 0.0
  orientation: 
    x: 0.0
    y: 0.0
    z: 0.723592634411
    w: 0.690227280992
---
header: 
  seq: 198
  stamp: 
    secs: 1553256335
    nsecs: 817138600
  frame_id: "map"
pose: 
  position: 
    x: -5.81033802032
    y: 1.56694602966
    z: 0.0
  orientation: 
    x: 0.0
    y: 0.0
    z: 0.72272440447
    w: 0.691136336176
---
header: 
  seq: 199
  stamp: 
    secs: 1553256335
    nsecs: 917570233
  frame_id: "map"
pose: 
  position: 
    x: -5.81492900848
    y: 1.61793708801
    z: 0.0
  orientation: 
    x: 0.0
    y: 0.0
    z: 0.721937525457
    w: 0.691958242481
---
header: 
  seq: 200
  stamp: 
    secs: 1553256336
    nsecs:  18080467
  frame_id: "map"
pose: 
  position: 
    x: -5.81746006012
    y: 1.67470550537
    z: 0.0
  orientation: 
    x: 0.0
    y: 0.0
    z: 0.720307507339
    w: 0.693654881674
---
header: 
  seq: 201
  stamp: 
    secs: 1553256336
    nsecs: 118499619
  frame_id: "map"
pose: 
  position: 
    x: -5.82025527954
    y: 1.72794914246
    z: 0.0
  orientation: 
    x: 0.0
    y: 0.0
    z: 0.717266768828
    w: 0.696798667001
---
header: 
  seq: 202
  stamp: 
    secs: 1553256336
    nsecs: 218773877
  frame_id: "map"
pose: 
  position: 
    x: -5.82010746002
    y: 1.80194664001
    z: 0.0
  orientation: 
    x: 0.0
    y: 0.0
    z: 0.715785434963
    w: 0.698320278307
---
header: 
  seq: 203
  stamp: 
    secs: 1553256336
    nsecs: 319363069
  frame_id: "map"
pose: 
  position: 
    x: -5.82260704041
    y: 1.85422325134
    z: 0.0
  orientation: 
    x: 0.0
    y: 0.0
    z: 0.715472565327
    w: 0.698640829228
---
header: 
  seq: 204
  stamp: 
    secs: 1553256336
    nsecs: 420444978
  frame_id: "map"
pose: 
  position: 
    x: -5.82564067841
    y: 1.88489723206
    z: 0.0
  orientation: 
    x: 0.0
    y: 0.0
    z: 0.72848063515
    w: 0.685066394017
---
header: 
  seq: 205
  stamp: 
    secs: 1553256336
    nsecs: 520709222
  frame_id: "map"
pose: 
  position: 
    x: -5.83395957947
    y: 1.95098686218
    z: 0.0
  orientation: 
    x: 0.0
    y: 0.0
    z: 0.731562124055
    w: 0.68177478587
---
header: 
  seq: 206
  stamp: 
    secs: 1553256336
    nsecs: 621112314
  frame_id: "map"
pose: 
  position: 
    x: -5.83936595917
    y: 1.9965763092
    z: 0.0
  orientation: 
    x: 0.0
    y: 0.0
    z: 0.731098124713
    w: 0.682272329823
---
header: 
  seq: 207
  stamp: 
    secs: 1553256336
    nsecs: 721337271
  frame_id: "map"
pose: 
  position: 
    x: -5.84474086761
    y: 2.06311798096
    z: 0.0
  orientation: 
    x: 0.0
    y: 0.0
    z: 0.730865306549
    w: 0.682521723964
---
header: 
  seq: 208
  stamp: 
    secs: 1553256336
    nsecs: 821767844
  frame_id: "map"
pose: 
  position: 
    x: -5.85206985474
    y: 2.13451576233
    z: 0.0
  orientation: 
    x: 0.0
    y: 0.0
    z: 0.728686564578
    w: 0.684847348395
---
header: 
  seq: 209
  stamp: 
    secs: 1553256336
    nsecs: 922086702
  frame_id: "map"
pose: 
  position: 
    x: -5.85389137268
    y: 2.17823982239
    z: 0.0
  orientation: 
    x: 0.0
    y: 0.0
    z: 0.725711046322
    w: 0.687999620092
---
header: 
  seq: 210
  stamp: 
    secs: 1553256337
    nsecs:  22611020
  frame_id: "map"
pose: 
  position: 
    x: -5.85820579529
    y: 2.22619628906
    z: 0.0
  orientation: 
    x: 0.0
    y: 0.0
    z: 0.724281175779
    w: 0.689504734147
---
header: 
  seq: 211
  stamp: 
    secs: 1553256337
    nsecs: 123075802
  frame_id: "map"
pose: 
  position: 
    x: -5.86394786835
    y: 2.28668022156
    z: 0.0
  orientation: 
    x: 0.0
    y: 0.0
    z: 0.723695725063
    w: 0.690119190811
---
header: 
  seq: 212
  stamp: 
    secs: 1553256337
    nsecs: 223728509
  frame_id: "map"
pose: 
  position: 
    x: -5.86856269836
    y: 2.32846832275
    z: 0.0
  orientation: 
    x: 0.0
    y: 0.0
    z: 0.723325617956
    w: 0.690507096566
---
header: 
  seq: 213
  stamp: 
    secs: 1553256337
    nsecs: 324174255
  frame_id: "map"
pose: 
  position: 
    x: -5.87194442749
    y: 2.37998580933
    z: 0.0
  orientation: 
    x: 0.0
    y: 0.0
    z: 0.723038976483
    w: 0.690807236852
---
header: 
  seq: 214
  stamp: 
    secs: 1553256337
    nsecs: 424772926
  frame_id: "map"
pose: 
  position: 
    x: -5.87704658508
    y: 2.43306541443
    z: 0.0
  orientation: 
    x: 0.0
    y: 0.0
    z: 0.721948578737
    w: 0.69194671013
---
header: 
  seq: 215
  stamp: 
    secs: 1553256337
    nsecs: 525314331
  frame_id: "map"
pose: 
  position: 
    x: -5.87863922119
    y: 2.49297332764
    z: 0.0
  orientation: 
    x: 0.0
    y: 0.0
    z: 0.720986006715
    w: 0.692949621633
---
header: 
  seq: 216
  stamp: 
    secs: 1553256337
    nsecs: 625704985
  frame_id: "map"
pose: 
  position: 
    x: -5.88125705719
    y: 2.53133964539
    z: 0.0
  orientation: 
    x: 0.0
    y: 0.0
    z: 0.717771946831
    w: 0.696278272203
---
header: 
  seq: 217
  stamp: 
    secs: 1553256337
    nsecs: 726224443
  frame_id: "map"
pose: 
  position: 
    x: -5.88488674164
    y: 2.58201217651
    z: 0.0
  orientation: 
    x: 0.0
    y: 0.0
    z: 0.715366161112
    w: 0.698749780348
---
header: 
  seq: 218
  stamp: 
    secs: 1553256337
    nsecs: 826888219
  frame_id: "map"
pose: 
  position: 
    x: -5.88463687897
    y: 2.60885047913
    z: 0.0
  orientation: 
    x: 0.0
    y: 0.0
    z: 0.714985885622
    w: 0.699138887033
---
header: 
  seq: 219
  stamp: 
    secs: 1553256337
    nsecs: 927150463
  frame_id: "map"
pose: 
  position: 
    x: -5.88610839844
    y: 2.63825416565
    z: 0.0
  orientation: 
    x: 0.0
    y: 0.0
    z: 0.715209585572
    w: 0.698910043357
---
header: 
  seq: 220
  stamp: 
    secs: 1553256338
    nsecs:  27650137
  frame_id: "map"
pose: 
  position: 
    x: -5.88990116119
    y: 2.68023109436
    z: 0.0
  orientation: 
    x: 0.0
    y: 0.0
    z: 0.713762263883
    w: 0.700388057191
---
header: 
  seq: 221
  stamp: 
    secs: 1553256338
    nsecs: 128191178
  frame_id: "map"
pose: 
  position: 
    x: -5.89170074463
    y: 2.70606040955
    z: 0.0
  orientation: 
    x: 0.0
    y: 0.0
    z: 0.713909487597
    w: 0.700237990628
---
header: 
  seq: 222
  stamp: 
    secs: 1553256338
    nsecs: 228924753
  frame_id: "map"
pose: 
  position: 
    x: -5.89136219025
    y: 2.78510284424
    z: 0.0
  orientation: 
    x: 0.0
    y: 0.0
    z: 0.713452143581
    w: 0.700703959472
---
header: 
  seq: 223
  stamp: 
    secs: 1553256338
    nsecs: 329044094
  frame_id: "map"
pose: 
  position: 
    x: -5.89335823059
    y: 2.82888221741
    z: 0.0
  orientation: 
    x: 0.0
    y: 0.0
    z: 0.710652637867
    w: 0.703543053617
---
header: 
  seq: 224
  stamp: 
    secs: 1553256338
    nsecs: 429710132
  frame_id: "map"
pose: 
  position: 
    x: -5.89284420013
    y: 2.86993217468
    z: 0.0
  orientation: 
    x: 0.0
    y: 0.0
    z: 0.708016624356
    w: 0.706195765801
---
header: 
  seq: 225
  stamp: 
    secs: 1553256338
    nsecs: 530030645
  frame_id: "map"
pose: 
  position: 
    x: -5.89484024048
    y: 2.8987159729
    z: 0.0
  orientation: 
    x: 0.0
    y: 0.0
    z: 0.706590267137
    w: 0.707622918218
---
header: 
  seq: 226
  stamp: 
    secs: 1553256338
    nsecs: 631075319
  frame_id: "map"
pose: 
  position: 
    x: -5.89808559418
    y: 2.98000717163
    z: 0.0
  orientation: 
    x: 0.0
    y: 0.0
    z: 0.70614810793
    w: 0.708064156462
---
header: 
  seq: 227
  stamp: 
    secs: 1553256338
    nsecs: 731280466
  frame_id: "map"
pose: 
  position: 
    x: -5.89724063873
    y: 3.00915718079
    z: 0.0
  orientation: 
    x: 0.0
    y: 0.0
    z: 0.705829988019
    w: 0.708381273054
---
header: 
  seq: 228
  stamp: 
    secs: 1553256338
    nsecs: 831942728
  frame_id: "map"
pose: 
  position: 
    x: -5.90072536469
    y: 3.07291030884
    z: 0.0
  orientation: 
    x: 0.0
    y: 0.0
    z: 0.704949266613
    w: 0.709257732775
---
header: 
  seq: 229
  stamp: 
    secs: 1553256338
    nsecs: 932067258
  frame_id: "map"
pose: 
  position: 
    x: -5.90270519257
    y: 3.13623046875
    z: 0.0
  orientation: 
    x: 0.0
    y: 0.0
    z: 0.705006293384
    w: 0.709201047863
---
header: 
  seq: 230
  stamp: 
    secs: 1553256339
    nsecs:  32417845
  frame_id: "map"
pose: 
  position: 
    x: -5.90468215942
    y: 3.20702362061
    z: 0.0
  orientation: 
    x: 0.0
    y: 0.0
    z: 0.702884579
    w: 0.711303921403
---
header: 
  seq: 231
  stamp: 
    secs: 1553256339
    nsecs: 132967173
  frame_id: "map"
pose: 
  position: 
    x: -5.90525913239
    y: 3.26484680176
    z: 0.0
  orientation: 
    x: 0.0
    y: 0.0
    z: 0.700696251055
    w: 0.713459714179
---
header: 
  seq: 232
  stamp: 
    secs: 1553256339
    nsecs: 233584678
  frame_id: "map"
pose: 
  position: 
    x: -5.90807723999
    y: 3.33956336975
    z: 0.0
  orientation: 
    x: 0.0
    y: 0.0
    z: 0.699830511933
    w: 0.714308934962
---
header: 
  seq: 233
  stamp: 
    secs: 1553256339
    nsecs: 334118393
  frame_id: "map"
pose: 
  position: 
    x: -5.9105463028
    y: 3.41223907471
    z: 0.0
  orientation: 
    x: 0.0
    y: 0.0
    z: 0.701115644085
    w: 0.713047581596
---
header: 
  seq: 234
  stamp: 
    secs: 1553256339
    nsecs: 434876796
  frame_id: "map"
pose: 
  position: 
    x: -5.90967178345
    y: 3.45073699951
    z: 0.0
  orientation: 
    x: 0.0
    y: 0.0
    z: 0.704645751756
    w: 0.709559274855
---
header: 
  seq: 235
  stamp: 
    secs: 1553256339
    nsecs: 535279372
  frame_id: "map"
pose: 
  position: 
    x: -5.91139602661
    y: 3.51086616516
    z: 0.0
  orientation: 
    x: 0.0
    y: 0.0
    z: 0.707545661902
    w: 0.706667627901
---
header: 
  seq: 236
  stamp: 
    secs: 1553256339
    nsecs: 635942147
  frame_id: "map"
pose: 
  position: 
    x: -5.91500473022
    y: 3.56463623047
    z: 0.0
  orientation: 
    x: 0.0
    y: 0.0
    z: 0.711751750957
    w: 0.702431096272
---
header: 
  seq: 237
  stamp: 
    secs: 1553256339
    nsecs: 736297117
  frame_id: "map"
pose: 
  position: 
    x: -5.91362667084
    y: 3.61100387573
    z: 0.0
  orientation: 
    x: 0.0
    y: 0.0
    z: 0.71699081263
    w: 0.697082616771
---
header: 
  seq: 238
  stamp: 
    secs: 1553256339
    nsecs: 836764734
  frame_id: "map"
pose: 
  position: 
    x: -5.91873550415
    y: 3.67424964905
    z: 0.0
  orientation: 
    x: 0.0
    y: 0.0
    z: 0.721002775528
    w: 0.69293217394
---
header: 
  seq: 239
  stamp: 
    secs: 1553256339
    nsecs: 937307539
  frame_id: "map"
pose: 
  position: 
    x: -5.92140293121
    y: 3.72425460815
    z: 0.0
  orientation: 
    x: 0.0
    y: 0.0
    z: 0.725542317705
    w: 0.688177553557
---
header: 
  seq: 240
  stamp: 
    secs: 1553256340
    nsecs:  37836309
  frame_id: "map"
pose: 
  position: 
    x: -5.92906570435
    y: 3.78736495972
    z: 0.0
  orientation: 
    x: 0.0
    y: 0.0
    z: 0.730334843831
    w: 0.68308931765
---
header: 
  seq: 241
  stamp: 
    secs: 1553256340
    nsecs: 138152036
  frame_id: "map"
pose: 
  position: 
    x: -5.93382549286
    y: 3.85625267029
    z: 0.0
  orientation: 
    x: 0.0
    y: 0.0
    z: 0.736232751848
    w: 0.676728405719
---
header: 
  seq: 242
  stamp: 
    secs: 1553256340
    nsecs: 238726493
  frame_id: "map"
pose: 
  position: 
    x: -5.94152736664
    y: 3.88779830933
    z: 0.0
  orientation: 
    x: 0.0
    y: 0.0
    z: 0.741203917991
    w: 0.671279935611
---
header: 
  seq: 243
  stamp: 
    secs: 1553256340
    nsecs: 339279994
  frame_id: "map"
pose: 
  position: 
    x: -5.9483833313
    y: 3.94751930237
    z: 0.0
  orientation: 
    x: 0.0
    y: 0.0
    z: 0.747303390818
    w: 0.66448298855
---
header: 
  seq: 244
  stamp: 
    secs: 1553256340
    nsecs: 439808317
  frame_id: "map"
pose: 
  position: 
    x: -5.95832157135
    y: 4.00257873535
    z: 0.0
  orientation: 
    x: 0.0
    y: 0.0
    z: 0.752872441748
    w: 0.658166458016
---
header: 
  seq: 245
  stamp: 
    secs: 1553256340
    nsecs: 540364409
  frame_id: "map"
pose: 
  position: 
    x: -5.96604824066
    y: 4.05616378784
    z: 0.0
  orientation: 
    x: 0.0
    y: 0.0
    z: 0.757055038517
    w: 0.653351106723
---
header: 
  seq: 246
  stamp: 
    secs: 1553256340
    nsecs: 641069975
  frame_id: "map"
pose: 
  position: 
    x: -5.97515869141
    y: 4.1203250885
    z: 0.0
  orientation: 
    x: 0.0
    y: 0.0
    z: 0.761250707711
    w: 0.648457677887
---
header: 
  seq: 247
  stamp: 
    secs: 1553256340
    nsecs: 741552259
  frame_id: "map"
pose: 
  position: 
    x: -5.98360729218
    y: 4.17008590698
    z: 0.0
  orientation: 
    x: 0.0
    y: 0.0
    z: 0.766875238062
    w: 0.641796205385
---
header: 
  seq: 248
  stamp: 
    secs: 1553256340
    nsecs: 842063657
  frame_id: "map"
pose: 
  position: 
    x: -5.99663925171
    y: 4.22164535522
    z: 0.0
  orientation: 
    x: 0.0
    y: 0.0
    z: 0.771974149645
    w: 0.63565392493
---
header: 
  seq: 249
  stamp: 
    secs: 1553256340
    nsecs: 942624286
  frame_id: "map"
pose: 
  position: 
    x: -6.0071144104
    y: 4.2820892334
    z: 0.0
  orientation: 
    x: 0.0
    y: 0.0
    z: 0.777577126761
    w: 0.628787572983
---
header: 
  seq: 250
  stamp: 
    secs: 1553256341
    nsecs:  43137023
  frame_id: "map"
pose: 
  position: 
    x: -6.02150821686
    y: 4.32800483704
    z: 0.0
  orientation: 
    x: 0.0
    y: 0.0
    z: 0.782784951232
    w: 0.622292310835
---
header: 
  seq: 251
  stamp: 
    secs: 1553256341
    nsecs: 143721137
  frame_id: "map"
pose: 
  position: 
    x: -6.03515625
    y: 4.38117027283
    z: 0.0
  orientation: 
    x: 0.0
    y: 0.0
    z: 0.787602619133
    w: 0.616183507029
---
header: 
  seq: 252
  stamp: 
    secs: 1553256341
    nsecs: 244258893
  frame_id: "map"
pose: 
  position: 
    x: -6.05126953125
    y: 4.43180656433
    z: 0.0
  orientation: 
    x: 0.0
    y: 0.0
    z: 0.791314118915
    w: 0.611409817721
---
header: 
  seq: 253
  stamp: 
    secs: 1553256341
    nsecs: 344606288
  frame_id: "map"
pose: 
  position: 
    x: -6.06508636475
    y: 4.48143577576
    z: 0.0
  orientation: 
    x: 0.0
    y: 0.0
    z: 0.795783406628
    w: 0.60558134857
---
header: 
  seq: 254
  stamp: 
    secs: 1553256341
    nsecs: 445298125
  frame_id: "map"
pose: 
  position: 
    x: -6.08212280273
    y: 4.52725410461
    z: 0.0
  orientation: 
    x: 0.0
    y: 0.0
    z: 0.800423476241
    w: 0.599434949501
---
header: 
  seq: 255
  stamp: 
    secs: 1553256341
    nsecs: 545650318
  frame_id: "map"
pose: 
  position: 
    x: -6.10092926025
    y: 4.5742893219
    z: 0.0
  orientation: 
    x: 0.0
    y: 0.0
    z: 0.805887161998
    w: 0.592069153163
---
header: 
  seq: 256
  stamp: 
    secs: 1553256341
    nsecs: 646387970
  frame_id: "map"
pose: 
  position: 
    x: -6.11969184875
    y: 4.61675834656
    z: 0.0
  orientation: 
    x: 0.0
    y: 0.0
    z: 0.810342481251
    w: 0.585956536853
---
header: 
  seq: 257
  stamp: 
    secs: 1553256341
    nsecs: 746794776
  frame_id: "map"
pose: 
  position: 
    x: -6.13887310028
    y: 4.67233085632
    z: 0.0
  orientation: 
    x: 0.0
    y: 0.0
    z: 0.815616897148
    w: 0.578592323736
---
header: 
  seq: 258
  stamp: 
    secs: 1553256341
    nsecs: 847444925
  frame_id: "map"
pose: 
  position: 
    x: -6.1604719162
    y: 4.7135887146
    z: 0.0
  orientation: 
    x: 0.0
